{
"type": "FeatureCollection",
"name": "establecimientos-cordoba",
"crs": { "type": "name", "properties": { "name": "urn:ogc:def:crs:OGC:1.3:CRS84" } },
"features": [
{ "type": "Feature", "properties": { "Name": "CS N° 1 - General Mosconi", "description": "Calle Pedro Naon 1330<br>Atención 7 - 21 hs<br>TE: 4335102 \/ 5428" }, "geometry": { "type": "Point", "coordinates": [ -64.149057, -31.3648, 0.0 ] } },
{ "type": "Feature", "properties": { "Name": "CS N° 2 - Los Sauces", "description": "Calle Algarrobo 351 esq. Espinillos <br>Atención 7 a 19 hs <br>TE: 4338516" }, "geometry": { "type": "Point", "coordinates": [ -64.0993237, -31.4622302, 0.0 ] } },
{ "type": "Feature", "properties": { "Name": "CS N° 3 - Los Pinos", "description": "Los Nogales 3786 (entre M.J. Duran y Rawson) <br>Atención 7 a 14 hs <br>TE: 4339101" }, "geometry": { "type": "Point", "coordinates": [ -64.1409144, -31.3921195, 0.0 ] } },
{ "type": "Feature", "properties": { "Name": "CS N° 4 - Nueva Italia", "description": "Calle Jose de Quevedo esq. Dos Barrios<br>Atención 7 a 17 hs<br>TE: 4335123" }, "geometry": { "type": "Point", "coordinates": [ -64.142765, -31.381934, 0.0 ] } },
{ "type": "Feature", "properties": { "Name": "CS N° 5 - Yofre Norte", "description": "Calle Rene de Clairac 1875<br>Atención 7 a 14 hs<br>TE: 4339103" }, "geometry": { "type": "Point", "coordinates": [ -64.130464, -31.38667, 0.0 ] } },
{ "type": "Feature", "properties": { "Name": "CS N° 6 - Villa Rivera Indarte", "description": "Calle Chamico y Reartes <br>Atención 7 a 17 hs <br>TE: 03543-449420" }, "geometry": { "type": "Point", "coordinates": [ -64.297292, -31.328122, 0.0 ] } },
{ "type": "Feature", "properties": { "Name": "CS N° 7 - Pueyrredón", "description": "Pasaje Urtubey esq. Faray Bracco <br>Atención 7 a 15 hs <br>TE: 4339135 \/ 9109" }, "geometry": { "type": "Point", "coordinates": [ -64.154813, -31.400302, 0.0 ] } },
{ "type": "Feature", "properties": { "Name": "CS N° 8 - Acosta", "description": "Calle Corrientes esq. Rio Parana<br>Atención 7 a 19 hs<br>TE: 4338551" }, "geometry": { "type": "Point", "coordinates": [ -64.130083, -31.427812, 0.0 ] } },
{ "type": "Feature", "properties": { "Name": "CS N° 9 - Alberdi Oeste", "description": "Calle Dr. Pedro Chutro\t169<br>Atención 7 a 17 hs<br>TE: 4337309" }, "geometry": { "type": "Point", "coordinates": [ -64.213926, -31.404899, 0.0 ] } },
{ "type": "Feature", "properties": { "Name": "CS N° 10 - Colonia Lola", "description": "Calle Lola Mora 1324<br>Atención 7 a 17 hs<br>TE: 4338763 \/ 8552" }, "geometry": { "type": "Point", "coordinates": [ -64.115186, -31.424926, 0.0 ] } },
{ "type": "Feature", "properties": { "Name": "CS N° 11 - Colón", "description": "Calle Tolosa 2564 esq. Acosta<br>Atención 7 a 18 hs<br>TE: 4338750 \/ 60" }, "geometry": { "type": "Point", "coordinates": [ -64.1642174, -31.4397503, 0.0 ] } },
{ "type": "Feature", "properties": { "Name": "CS N° 12 - Ferreyra", "description": "Calle Armas Argentinas 5747<br>Atención 24 hs<br>TE: 4338630" }, "geometry": { "type": "Point", "coordinates": [ -64.1088675, -31.4611731, 0.0 ] } },
{ "type": "Feature", "properties": { "Name": "CS N° 13 - Hipolito Yrigoyen", "description": "Calle Avellaneda 3571<br>Atención 7 a 14 hs<br>TE: 4335435" }, "geometry": { "type": "Point", "coordinates": [ -64.186984, -31.372752, 0.0 ] } },
{ "type": "Feature", "properties": { "Name": "CS N° 14 - General Bustos", "description": "Calle Diagonal IKA 1010<br>Atención 7 a 15:30 hs<br>TE: 4336003" }, "geometry": { "type": "Point", "coordinates": [ -64.1639571, -31.3871433, 0.0 ] } },
{ "type": "Feature", "properties": { "Name": "CS N° 15 - Remedios de Escalada", "description": "Calle 5 entre 14 y 15<br>Atención 7 a 14 hs<br>TE: 4332860\/61" }, "geometry": { "type": "Point", "coordinates": [ -64.178771, -31.339123, 0.0 ] } },
{ "type": "Feature", "properties": { "Name": "CS N° 16 - Zumaran", "description": "Calle Sebastian Gaboto 2356<br>Atención 7 a 15 hs<br>TE: 4335108 \/ 5438" }, "geometry": { "type": "Point", "coordinates": [ -64.205153, -31.375246, 0.0 ] } },
{ "type": "Feature", "properties": { "Name": "CS N° 17 - Villa Azalaiz Oeste", "description": "Calle Acampes esq. Gerchunoff<br>Atención 7 a 14 hs<br>TE: 4335109 \/ 5436" }, "geometry": { "type": "Point", "coordinates": [ -64.175209, -31.36641, 0.0 ] } },
{ "type": "Feature", "properties": { "Name": "CS N° 18 - San Jorge", "description": "Calle Barrancas del Parana esq. Jose Melian<br>Atención 7 a 18 hs<br>TE: 4335103\/ 5429" }, "geometry": { "type": "Point", "coordinates": [ -64.132154, -31.374268, 0.0 ] } },
{ "type": "Feature", "properties": { "Name": "CS N° 19 - Sargento Cabral", "description": "Calle Francisco Suarez 3170<br>Atención 7 a 14 hs<br>TE: 4335110 \/ 5439" }, "geometry": { "type": "Point", "coordinates": [ -64.194928, -31.375731, 0.0 ] } },
{ "type": "Feature", "properties": { "Name": "CS N° 20 - Las Margaritas", "description": "Calle Herminio Malvino 2662<br>Atención 7 a 14 hs<br>TE: 4335104 \/ 5440" }, "geometry": { "type": "Point", "coordinates": [ -64.210984, -31.377368, 0.0 ] } },
{ "type": "Feature", "properties": { "Name": "CS N° 21 - Marquez de Sobremonte", "description": "Calle Aguilar 5441 esq. Tomas de Irobi<br>Atención 7 a 18 hs<br>TE: 4335105\/ 5441" }, "geometry": { "type": "Point", "coordinates": [ -64.196747, -31.364883, 0.0 ] } },
{ "type": "Feature", "properties": { "Name": "CS N° 22 -Alberdi Sud\n", "description": "Calle Gavino Blanco 2229 esq. Angel Avalos<br>Atención 7 a 14 hs<br>TE: 4337310 \/ 7364" }, "geometry": { "type": "Point", "coordinates": [ -64.2136126, -31.4125611, 0.0 ] } },
{ "type": "Feature", "properties": { "Name": "CS N° 23 - Rosedal Anexo", "description": "Calle Padre Lozano 2490<br>Atención 7 a 17 hs<br>TE: 4333302" }, "geometry": { "type": "Point", "coordinates": [ -64.2235098, -31.4374901, 0.0 ] } },
{ "type": "Feature", "properties": { "Name": "CS N° 24 - Cupani", "description": "Calle Isaac Albeniz 1454<br>Atención 7 a 14 hs<br>TE: 4333303 \/ 3518" }, "geometry": { "type": "Point", "coordinates": [ -64.207929, -31.423763, 0.0 ] } },
{ "type": "Feature", "properties": { "Name": "CS N° 25 - San MartÍn", "description": "Calle Paso de Uspallata 991<br>Atención 7 a 18 hs (Miercoles 7 a 14 hs)<br>TE: 4336021" }, "geometry": { "type": "Point", "coordinates": [ -64.196768, -31.394638, 0.0 ] } },
{ "type": "Feature", "properties": { "Name": "CS N° 26 - Santa Ana", "description": "Calle Gurruchaga 785<br>Atención 7 a 21 hs<br>TE: 4337306" }, "geometry": { "type": "Point", "coordinates": [ -64.232517, -31.414465, 0.0 ] } },
{ "type": "Feature", "properties": { "Name": "CS N° 27 - Pilar", "description": "Calle Tapalque esq. Patagonia<br>Atención 7 a 14 hs<br>TE: 4338553" }, "geometry": { "type": "Point", "coordinates": [ -64.156071, -31.443944, 0.0 ] } },
{ "type": "Feature", "properties": { "Name": "CS N° 28 - Las Violetas", "description": "Calle Aviador Locatelli y Formosa<br>Atención 7 a 17 hs<br>TE: 4337302" }, "geometry": { "type": "Point", "coordinates": [ -64.250729, -31.410755, 0.0 ] } },
{ "type": "Feature", "properties": { "Name": "CS N° 29 - Villa Siburu", "description": "Calle Clodomiro Arzac 550<br>Atención 7 a 18 hs<br>TE: 4337307" }, "geometry": { "type": "Point", "coordinates": [ -64.227643, -31.39575, 0.0 ] } },
{ "type": "Feature", "properties": { "Name": "CS N° 30 - Villa Paez", "description": "Calle Emilio Conti 1050 esq. Silvestre Remonda<br>Atención 7 a 18 hs<br>TE: 4337308" }, "geometry": { "type": "Point", "coordinates": [ -64.2068028, -31.3971334, 0.0 ] } },
{ "type": "Feature", "properties": { "Name": "CS N° 31 - La Salle", "description": "Calle Curaquen 6500 <br>Atención 7 a 15 hs <br>TE: 03543-449427" }, "geometry": { "type": "Point", "coordinates": [ -64.275016, -31.344291, 0.0 ] } },
{ "type": "Feature", "properties": { "Name": "CS N° 32 - Yapeyu", "description": "Calle Loreto 42<br>Atención 7 a 20 hs<br>TE: 4339110\/36" }, "geometry": { "type": "Point", "coordinates": [ -64.149583, -31.41276, 0.0 ] } },
{ "type": "Feature", "properties": { "Name": "CSN° 33 - Argüello", "description": "Avenida Donato Alvarez 7375<br>Atención 7 a 20 hs<br>TE: 4338335" }, "geometry": { "type": "Point", "coordinates": [ -64.266425, -31.327899, 0.0 ] } },
{ "type": "Feature", "properties": { "Name": "CS N° 34 - Villa 9 de Julio", "description": "Calle Coquena 7850 esq. Huarpes<br>Atención 7 a 18 hs<br>TE: 03543-449428\/22" }, "geometry": { "type": "Point", "coordinates": [ -64.271704, -31.328768, 0.0 ] } },
{ "type": "Feature", "properties": { "Name": "CS N° 35 - Villa Revol", "description": "Calle Chascomus 1750<br>Atención 7 a 19 hs<br>TE: 4334359\/51" }, "geometry": { "type": "Point", "coordinates": [ -64.170448, -31.445921, 0.0 ] } },
{ "type": "Feature", "properties": { "Name": "CS N° 37 - Jose I. Diaz", "description": "Calle Pedernera 2734 esq. Albornoz<br>Atención 7 a 19:00 hs<br>TE: 4338758" }, "geometry": { "type": "Point", "coordinates": [ -64.140673, -31.442724, 0.0 ] } },
{ "type": "Feature", "properties": { "Name": "CS N° 38 - Urquiza", "description": "Calle Miguel de Marmol 2956<br>Atención 7 a 14 hs<br>TE: 4338555\/ 38765" }, "geometry": { "type": "Point", "coordinates": [ -64.14785, -31.439245, 0.0 ] } },
{ "type": "Feature", "properties": { "Name": "CS N° 39 - Ferrer", "description": "Calle Bustos y Ferreyra 3100 esq. M. Baigorria<br>Atención 7 a 14 hs<br>TE: 4334355" }, "geometry": { "type": "Point", "coordinates": [ -64.210871, -31.445241, 0.0 ] } },
{ "type": "Feature", "properties": { "Name": "CS N° 40 - Las Flores", "description": "Avenida Armada Agentina 105<br>Atención 7 a 19 hs<br>TE: 4334353" }, "geometry": { "type": "Point", "coordinates": [ -64.202272, -31.451094, 0.0 ] } },
{ "type": "Feature", "properties": { "Name": "CS N° 41 - Villa El Libertador", "description": "Calle Chiclayo 105 (entre Pje. Publico y Defensa)<br>Atención de 7 a 19 hs<br>TE: 4333211" }, "geometry": { "type": "Point", "coordinates": [ -64.214358, -31.469805, 0.0 ] } },
{ "type": "Feature", "properties": { "Name": "CS N° 42 - Comercial", "description": "Calle Virgen de Fatima esq. Rio Tercero<br>Atención 7 a 19 hs<br>TE: 4333312 \/ 3187" }, "geometry": { "type": "Point", "coordinates": [ -64.209587, -31.484598, 0.0 ] } },
{ "type": "Feature", "properties": { "Name": "CS N° 43 - Guemes", "description": "Calle Bolivar 826<br>Atención 7 a 14 hs<br>TE: 4334377 \/ 4366" }, "geometry": { "type": "Point", "coordinates": [ -64.194918, -31.42379, 0.0 ] } },
{ "type": "Feature", "properties": { "Name": "CS N° 44 - Bella Vista", "description": "Calle Alejandro Dumas esq. Venus<br>Atención 7 a 14 hs<br>TE: 4334281" }, "geometry": { "type": "Point", "coordinates": [ -64.208575, -31.434609, 0.0 ] } },
{ "type": "Feature", "properties": { "Name": "CS N° 45 - Cabo Farina", "description": "Calle Viña del Mar 4651<br>Atención 7 a 14 hs<br>TE: 4334356 \/ 4080" }, "geometry": { "type": "Point", "coordinates": [ -64.205303, -31.463756, 0.0 ] } },
{ "type": "Feature", "properties": { "Name": "CS N° 46 - Santa Isabel\n", "description": "Calle Altos del Tala (Entre Catamarca e Isla Verde) <br>Atención 7 a 19 hs <br>TE: 4333313" }, "geometry": { "type": "Point", "coordinates": [ -64.229615, -31.479408, 0.0 ] } },
{ "type": "Feature", "properties": { "Name": "CS N° 47 - Coronel Olmedo", "description": "Calle Ruiz Huidobro 5848<br>Atención 7 a 19 hs<br>TE: 4338633" }, "geometry": { "type": "Point", "coordinates": [ -64.143159, -31.478775, 0.0 ] } },
{ "type": "Feature", "properties": { "Name": "CS N° 48 - Villa Azalaiz Este", "description": "Calle Milan 2960<br>Atención 7 a 14 hs<br>TE: 4335106 \/ 5437" }, "geometry": { "type": "Point", "coordinates": [ -64.150701, -31.37525, 0.0 ] } },
{ "type": "Feature", "properties": { "Name": "CS N° 49 - Colinas del Cerro", "description": "Calle Las Acacias esq Ramon Mestre<br>Atención 7 a 14 hs<br>TE: 4338405" }, "geometry": { "type": "Point", "coordinates": [ -64.248691, -31.379297, 0.0 ] } },
{ "type": "Feature", "properties": { "Name": "CS N° 50 - Villa Adela", "description": "Calle Gabriela Mistral 4711<br>Atención 7 a 19 hs<br>TE: 4333304" }, "geometry": { "type": "Point", "coordinates": [ -64.248264, -31.435822, 0.0 ] } },
{ "type": "Feature", "properties": { "Name": "CS N° 51 - Guiñazu", "description": "Calle De la Caja esq. Del Erquencho<br>Atención 24 hs<br>TE: 4995883" }, "geometry": { "type": "Point", "coordinates": [ -64.176877, -31.313835, 0.0 ] } },
{ "type": "Feature", "properties": { "Name": "CS N° 52 - Villa Urquiza", "description": "Calle Humberto 1º esq. Triunvirato<br>Atención 7 a 15 hs<br>TE: 4337311 \/ 7338" }, "geometry": { "type": "Point", "coordinates": [ -64.2413626, -31.3919634, 0.0 ] } },
{ "type": "Feature", "properties": { "Name": "CS N° 53 - Inaudi", "description": "Calle Teniente Nivoli esq. Fiorito<br>Atención Lunes y Miérc. 7 a 18 hs \/ Martes - Jueves y Viernes 7 a 14 hs<br>TE: 4333314" }, "geometry": { "type": "Point", "coordinates": [ -64.193448, -31.47643, 0.0 ] } },
{ "type": "Feature", "properties": { "Name": "CS N 54 - Los Boulevares", "description": "Bv de Los Hungaros esq Bv. De los Lombardos<br>Calle 7 a 14 hs<br>TE: 43351442" }, "geometry": { "type": "Point", "coordinates": [ -64.217497, -31.344621, 0.0 ] } },
{ "type": "Feature", "properties": { "Name": "CS N° 55 - Las Palmas", "description": "Calle Miguel de Sopegna 350<br>Atención Lunes - Mierc. y Viernes 7 a 15 hs \/ Martes y Jueves 7 a 15 hs<br>TE: 4337339" }, "geometry": { "type": "Point", "coordinates": [ -64.240834, -31.406385, 0.0 ] } },
{ "type": "Feature", "properties": { "Name": "CS N° 56 - Empalme", "description": "Calle Ariza 4800 (entre Samaniego y Pichanas)<br>Atención 7 a 17 hs<br>TE: 4338561 \/ 8766" }, "geometry": { "type": "Point", "coordinates": [ -64.124231, -31.432059, 0.0 ] } },
{ "type": "Feature", "properties": { "Name": "CS N° 57 - Arguello I.P.V", "description": "Calle Juan Cassoulet esq. Fage <br>Atención 7 a 18 hs <br>03543-449432" }, "geometry": { "type": "Point", "coordinates": [ -64.2445654, -31.3338584, 0.0 ] } },
{ "type": "Feature", "properties": { "Name": "CS N° 58 - Maldonado", "description": "Calle Martín Cartechini esq. Blas Parera<br>Atención 24hs<br>TE: 4338573" }, "geometry": { "type": "Point", "coordinates": [ -64.131618, -31.414486, 0.0 ] } },
{ "type": "Feature", "properties": { "Name": "CS N° 59 - Congreso", "description": "Calle Curazao esq. Ralico<br>Atención 7 a 18 hs<br>TE: 4333305" }, "geometry": { "type": "Point", "coordinates": [ -64.232624, -31.467755, 0.0 ] } },
{ "type": "Feature", "properties": { "Name": "CS N° 60 - Marquez de Sobremonte Anexo", "description": "Calle Del Molino esq. Del Precursor<br>Atención 7 a 14 hs<br>TE: 4335122" }, "geometry": { "type": "Point", "coordinates": [ -64.190261, -31.372003, 0.0 ] } },
{ "type": "Feature", "properties": { "Name": "CS N° 61 - Cerrito Autodromo", "description": "Calle Domingo Marimon esq Mario Sesarego<br>Atención 7 a 18 hs<br>TE: 03543-449421" }, "geometry": { "type": "Point", "coordinates": [ -64.248648, -31.325207, 0.0 ] } },
{ "type": "Feature", "properties": { "Name": "CS N° 62 - Villa Cornú", "description": "Llanquen entre Quilluamila y Lonconche<br>Atención 7 a 14 hs" }, "geometry": { "type": "Point", "coordinates": [ -64.2701, -31.3134754, 0.0 ] } },
{ "type": "Feature", "properties": { "Name": "CS N° 63 - Parque República", "description": "Mariano Rosas esq. Ceferino Namuncura<br>Atención 7 a 14 hs<br>TE: 4337818" }, "geometry": { "type": "Point", "coordinates": [ -64.2593529, -31.4154659, 0.0 ] } },
{ "type": "Feature", "properties": { "Name": "CS N° 64 - Oña \/ Bialet Massé", "description": "Calle Los Hornillos esq. Cerro Colorado<br>Atención 7 a 14 hs<br>TE: 4334376" }, "geometry": { "type": "Point", "coordinates": [ -64.165108, -31.4524859, 0.0 ] } },
{ "type": "Feature", "properties": { "Name": "CS N° 65 - San Roque\n", "description": "Calle Guemes (Esq. Kingsley) <br>Horario: 7-19 hs <br>TE: 4333210 \/ 3315" }, "geometry": { "type": "Point", "coordinates": [ -64.247017, -31.421891, 0.0 ] } },
{ "type": "Feature", "properties": { "Name": "CS N° 66 - Mercantil Anexo\n", "description": "Onofre Marimon y Jose Maria Rosa<br>Atención: 7 a 14 hs <br>TE: 03543-449430 \/ 9022" }, "geometry": { "type": "Point", "coordinates": [ -64.2562331, -31.3205102, 0.0 ] } },
{ "type": "Feature", "properties": { "Name": "CS N° 67 - 16 de Noviembre\n", "description": "Calle Cauque s\/n (al lado del Obrador)<br>Atención 7 a 14 hs <br>TE: 03543-449431 \/ 9443" }, "geometry": { "type": "Point", "coordinates": [ -64.261726, -31.313572, 0.0 ] } },
{ "type": "Feature", "properties": { "Name": "CS N° 68 - Carcano", "description": "Calle De las Altas Cumbres 3830<br>Atención: 7 a 14 hs <br>TE: 4338500" }, "geometry": { "type": "Point", "coordinates": [ -64.144551, -31.46598, 0.0 ] } },
{ "type": "Feature", "properties": { "Name": "CS N° 69 - General Arenales", "description": "Calle La Pirincha esq. El Crespin<br>Atención: 7:30-18:30 hs <br>TE: 4997931" }, "geometry": { "type": "Point", "coordinates": [ -64.060866, -31.369312, 0.0 ] } },
{ "type": "Feature", "properties": { "Name": "CS N° 70 - Estación Flores\n", "description": "Calle Berlin 3540<br>Atención 7 a 17 hs <br>TE: 4333208" }, "geometry": { "type": "Point", "coordinates": [ -64.245434, -31.449076, 0.0 ] } },
{ "type": "Feature", "properties": { "Name": "CS N° 71 - Cooperativa El Arco \n", "description": "Calle Av. Sotomayor 3421 (Esq. Nicolas de la Retama)<br>Atención 7 a 19 hs <br>TE: 4338631" }, "geometry": { "type": "Point", "coordinates": [ -64.133179, -31.455741, 0.0 ] } },
{ "type": "Feature", "properties": { "Name": "CS N° 72 - La Floresta", "description": "Calle Las Orquidias s\/n (al lado del Centro Vecinal) <br>Atención 8 a 14 hs <br>TE: 4997930" }, "geometry": { "type": "Point", "coordinates": [ -64.059992, -31.378005, 0.0 ] } },
{ "type": "Feature", "properties": { "Name": "CS N° 73 - Parque Futura\n", "description": "Calle Guanazacate (Esq. Aruba)<br>Atención 7 a 14:30 hs <br>TE: 4333314" }, "geometry": { "type": "Point", "coordinates": [ -64.246765, -31.483352, 0.0 ] } },
{ "type": "Feature", "properties": { "Name": "CS N° 74 - Villa Esquiú", "description": "A. Arturo Capdevila Km 10<br>Atención 7 a 14 hs <br>TE: 4999910" }, "geometry": { "type": "Point", "coordinates": [ -64.105461, -31.355414, 0.0 ] } },
{ "type": "Feature", "properties": { "Name": "CS N° 75 - Cerveceros\n", "description": "Calle Onofrio Palamara 2825 (entre Reyna y Saavedra)<br>Atención 7 a 14 hs <br>TE: 4334357 \/ 4379" }, "geometry": { "type": "Point", "coordinates": [ -64.16007, -31.464296, 0.0 ] } },
{ "type": "Feature", "properties": { "Name": "CS N° 76 - Villa Unión", "description": "Calle Tres Cruces (Esq. Cataneo)<br>Atención 7 a 14 hs <br>TE: 4333332 \/ 3209" }, "geometry": { "type": "Point", "coordinates": [ -64.263116, -31.421353, 0.0 ] } },
{ "type": "Feature", "properties": { "Name": "CS N° 77 - Don Bosco\n", "description": "Calle Juan B. Guerra 6894<br>Atención 7 a 14 hs <br>TE: 155395765" }, "geometry": { "type": "Point", "coordinates": [ -64.272305, -31.384804, 0.0 ] } },
{ "type": "Feature", "properties": { "Name": "CS N° 78 - Parque Liceo II Secc. ", "description": "Calle Gutierrez Najera 1056 (Esq. Olegario Andrade)<br>Atención 7 a 19 hs <br>TE: 4332862" }, "geometry": { "type": "Point", "coordinates": [ -64.162989, -31.357558, 0.0 ] } },
{ "type": "Feature", "properties": { "Name": "CS N°79 - Albert Sabin\n", "description": "Camino San Antonio Km 7 1\/2<br>Atención 7 a 18 hs <br>TE: 153196086" }, "geometry": { "type": "Point", "coordinates": [ -64.189376, -31.489784, 0.0 ] } },
{ "type": "Feature", "properties": { "Name": "CS N° 80 - Renacimiento", "description": "Calle Manuel de Oliden 448<br>Atención 7.30 a 14.30 hs <br>TE: 4338562" }, "geometry": { "type": "Point", "coordinates": [ -64.122643, -31.41547, 0.0 ] } },
{ "type": "Feature", "properties": { "Name": "CS N° 81 - San Lorenzo\n", "description": "Calle Juan Segui 4608 (Esq. Nerena)<br>Atención 7 a 14 hs <br>TE: 4338632" }, "geometry": { "type": "Point", "coordinates": [ -64.111136, -31.454064, 0.0 ] } },
{ "type": "Feature", "properties": { "Name": "CS N° 82 - Villa Allende Parque \n", "description": "Calle 15 S\/N (entre 18 y 19)<br>Atención 7 a 17 hs <br>TE: 03543-439691" }, "geometry": { "type": "Point", "coordinates": [ -64.2831949, -31.3156063, 0.0 ] } },
{ "type": "Feature", "properties": { "Name": "CS N° 83 - Ameghino Norte\n", "description": "Calle Diaz de la Fuente 1834<br>Atención 7 a 14 hs<br>TE: 4333335" }, "geometry": { "type": "Point", "coordinates": [ -64.2365297, -31.4303587, 0.0 ] } },
{ "type": "Feature", "properties": { "Name": "CS N° 84 - Bajo Grande\n", "description": "Camino a Chacra de la Merced Km 6 1\/2<br>Atención 8 a 15 hs <br>TE: 4339137" }, "geometry": { "type": "Point", "coordinates": [ -64.11575, -31.402825, 0.0 ] } },
{ "type": "Feature", "properties": { "Name": "CS N° 85 - Patricios Este\n", "description": "Heroes de Vilcapujio 3725<br>Atención 7 a 14 hs<br>TE: 4335133" }, "geometry": { "type": "Point", "coordinates": [ -64.1365309, -31.3670038, 0.0 ] } },
{ "type": "Feature", "properties": { "Name": "CS N° 86 - Villa El Libertador\n", "description": "Calle Barraquilla S\/N (entre Mercedes y Pje.Publico ex.12)<br>Atención 7 a 16 hs<br>TE: 4333512\/ 3216" }, "geometry": { "type": "Point", "coordinates": [ -64.216515, -31.480657, 0.0 ] } },
{ "type": "Feature", "properties": { "Name": "CS N° 87 - Sachi\n", "description": "Calle El Dorado 6050<br>Atención 7 a 14 hs <br>TE: 4333217" }, "geometry": { "type": "Point", "coordinates": [ -64.263078, -31.454728, 0.0 ] } },
{ "type": "Feature", "properties": { "Name": "CS N° 88 - Chacra de la Merced ", "description": "Ruta 19 altura Ingreso Malvinas Argentinas<br>Atención 7 a 19 hs <br>TE: 156103070" }, "geometry": { "type": "Point", "coordinates": [ -64.056988, -31.383574, 0.0 ] } },
{ "type": "Feature", "properties": { "Name": "CS N° 89 - Villa Rivadavia \n", "description": "Camino a San Antonio Km 8 1\/2<br>Atención 7 a 15 hs <br>TE: 4333228" }, "geometry": { "type": "Point", "coordinates": [ -64.190079, -31.506264, 0.0 ] } },
{ "type": "Feature", "properties": { "Name": "CS N° 90 - Ituzaingo Anexo\n", "description": "Calle James Frank 5571<br>Atención 7 a 19 hs <br>TE: 4348527" }, "geometry": { "type": "Point", "coordinates": [ -64.082319, -31.463619, 0.0 ] } },
{ "type": "Feature", "properties": { "Name": "CS N° 91 - Villa Bustos\n", "description": "Pasaje Ancasti esq. Benjamin Viel<br>Atención 7 a 19 hs <br>TE: 4338528" }, "geometry": { "type": "Point", "coordinates": [ -64.113185, -31.439264, 0.0 ] } },
{ "type": "Feature", "properties": { "Name": "CS N° 92 - Los Cortaderos\n", "description": "Boulevard de los Polacos y Canal Norte<br>Atención 7 a 14 hs<br>TE:" }, "geometry": { "type": "Point", "coordinates": [ -64.231299, -31.332388, 0.0 ] } },
{ "type": "Feature", "properties": { "Name": "CS N° 93 - Villa La Tela\n", "description": "Aviador Almonacid esq. Avdor Zaar<br>Atención 7 a 14 hs <br>TE: 4343188" }, "geometry": { "type": "Point", "coordinates": [ -64.252617, -31.427766, 0.0 ] } },
{ "type": "Feature", "properties": { "Name": "CS N° 94 - Parque Liceo III Secc.\n", "description": "Calle Juan Luis Orrego 4735 (Esq. Constancio Vigil)<br>Atención 8 a 15 hs<br>TE: 4331924" }, "geometry": { "type": "Point", "coordinates": [ -64.151718, -31.356555, 0.0 ] } },
{ "type": "Feature", "properties": { "Name": "CS N° 95 - Camimo a 60 Cuadras\n", "description": "Camimo a 60 cuadas Km 3 1\/2 <br>Atención 7 a 14 hs <br>TE: 4348520" }, "geometry": { "type": "Point", "coordinates": [ -64.148011, -31.474463, 0.0 ] } },
{ "type": "Feature", "properties": { "Name": "CS N° 96 - Jose Ignacio Diaz 1 Secc", "description": "Calle Publica Nº 1 Mza. 26 Lote 17<br>Atención 8 a 15 hs <br>TE: 156107044" }, "geometry": { "type": "Point", "coordinates": [ -64.146745, -31.450687, 0.0 ] } },
{ "type": "Feature", "properties": { "Name": "CS N° 97 - Cabildo\n", "description": "Río Colorado esq. Guaman<br>Atención 7 a 14:30 hs<br>TE: 4343230" }, "geometry": { "type": "Point", "coordinates": [ -64.234529, -31.488507, 0.0 ] } },
{ "type": "Feature", "properties": { "Name": "CS N° 98 - Mercado de Abasto\n", "description": "4969060" }, "geometry": { "type": "Point", "coordinates": [ -64.1121984, -31.3951322, 0.0 ] } },
{ "type": "Feature", "properties": { "Name": "HOSPITAL MUNICIPAL DE URGENCIAS", "description": "<img src=\"https:\/\/lh6.googleusercontent.com\/proxy\/nE-JEHDQwbRqZ5VaeGhGFzc8giORFMR3LcDy2CMfnf2yJ7NiQ5Otm3zINOmTfnWFaNGD6tpQ-EUfhMsavU33DzbNTF3VrVDEdYuD7T9ZpNtL8TnPwDUMoDZs9fx2neykE9ZQ3OLlK4UZRIfovcMOyzzcz7HJbg\" height=\"200\" width=\"auto\" \/><br><br>Calle Catamarca 441 <br>Atención 24 horas <br>TE: 4276200 int. 4129-4171-4172" }, "geometry": { "type": "Point", "coordinates": [ -64.175531, -31.412975, 0.0 ] } },
{ "type": "Feature", "properties": { "Name": "HOSPITAL INFANTIL MUNICIPAL", "description": "<img src=\"https:\/\/lh3.googleusercontent.com\/proxy\/OqgmTHleM85guiV6YbjK07rSVJgtfOg9VrojDf1Clx_-ZCGOHoRp0Ty5onhGBlibtgszWWU9Rslo9jlR4W41Ky7wwVXh6Yxns-OrWZoUmaEXl9-0SN9GlHgmJ6GEYRemGkHCaDOY7uDNc-dl60FgKgKkng\" height=\"200\" width=\"auto\" \/><br><br>Calle Lavalleja 3050 - Bº Alta Córdoba <br>Atención 24 hs <br>TE: 4708800 - 4335452 al 58 Conm. 5000 Int 5010\/11\/12" }, "geometry": { "type": "Point", "coordinates": [ -64.182585, -31.380075, 0.0 ] } },
{ "type": "Feature", "properties": { "Name": "HOSPITAL MUNICIPAL ZONA SUR PRINCIPE DE ASTURIAS", "description": "Calle Defensa 1200 - B° Villa El Libertador<br>TE: 4343221 - 4343222 - 4343223 - 4343224 - 4343225" }, "geometry": { "type": "Point", "coordinates": [ -64.206693, -31.471013, 0.0 ] } },
{ "type": "Feature", "properties": { "Name": "DEM CENTRO", "description": "Calle Sarmiento 450 <br>Atención 7:00 a 19:00<br>TE: 4332738\/39" }, "geometry": { "type": "Point", "coordinates": [ -64.175815, -31.411972, 0.0 ] } },
{ "type": "Feature", "properties": { "Name": "DEM NORTE", "description": "Calle Anacreonte esq. Jujuy - Bº Alta Córdoba <br>Atención 07:00 a 15:00 hs <br>TE: 4708880\/81" }, "geometry": { "type": "Point", "coordinates": [ -64.181201, -31.37937, 0.0 ] } },
{ "type": "Feature", "properties": { "Name": "DEM OESTE", "description": "Calle Deán Funes 2000 esq. Muñiz - Bº Alberdi<br>Atención 07:00 a 17:00 hs<br>TE: 4337113\/12 – 4337312" }, "geometry": { "type": "Point", "coordinates": [ -64.209962, -31.407898, 0.0 ] } },
{ "type": "Feature", "properties": { "Name": "HEMOCENTRO MUNICIPAL", "description": "Calle Salta 480<br>TE:4332747 - 4276240 interno 4474\/75\/76" }, "geometry": { "type": "Point", "coordinates": [ -64.176394, -31.412123, 0.0 ] } },
{ "type": "Feature", "properties": { "Name": "SERVICIO ODONTOLÓGICO MUNICIPAL", "description": "<img src=\"https:\/\/lh3.googleusercontent.com\/proxy\/iNXZl3O3HIti7iWVb-dwwz46Du7iN2FmWRMVDtWtnhRhb-W0iXTyb3QpZ3GM8SGMRBK5N6iecUTSMC9VHsl7Jas9NnjKpfIbmVMfTUmIZ4_gFw25zcQY976PZsjljoGguHYmy4l7w3n6X-999bnQb13L91FkW2TttTtZww\" height=\"200\" width=\"auto\" \/><br><br>Calle San Martín 850 <br>TE: 4342250 - 4332753 - Fax: 4342249" }, "geometry": { "type": "Point", "coordinates": [ -64.180101, -31.406597, 0.0 ] } },
{ "type": "Feature", "properties": { "Name": "HOGAR  PADRE LAMONACA", "description": "Calle Estanislao Learte 653 - B° Mauller<br>Atención 8:00 a 14:00<br>TE: 4338558-4338559" }, "geometry": { "type": "Point", "coordinates": [ -64.136987, -31.417331, 0.0 ] } }
]
}
