{
"type": "FeatureCollection",
"name": "farmacias-pami",
"crs": { "type": "name", "properties": { "name": "urn:ogc:def:crs:OGC:1.3:CRS84" } },
"features": [
{ "type": "Feature", "properties": { "CodigoHomologado": "909015598", "Nombre": "MARIN", "Direccion": "La Paz 3093", "Provincia": "Santa Fe", "Localidad": "Rosario", "CodigoPostal": "2000", "CUIT": "27134490182", "InstitucionPresentacion": "Colegio de Santa Fe 2da.Circ.", "Entidad": "Fefara", "PAIS": "Argentina" }, "geometry": { "type": "Point", "coordinates": [ -60.669697324, -32.959381345 ] } },
{ "type": "Feature", "properties": { "CodigoHomologado": "909200481", "Nombre": "LA CAPITAL", "Direccion": "Corrientes 1402", "Provincia": "Santa Fe", "Localidad": "Rosario", "CodigoPostal": "2000", "CUIT": "20208063163", "InstitucionPresentacion": "Colegio de Santa Fe 2da.Circ.", "Entidad": "Fefara", "PAIS": "Argentina" }, "geometry": { "type": "Point", "coordinates": [ -60.6442472, -32.9531805 ] } },
{ "type": "Feature", "properties": { "CodigoHomologado": "909010792", "Nombre": "CONDE", "Direccion": "Necochea 1245", "Provincia": "Santa Fe", "Localidad": "Rosario", "CodigoPostal": "2000", "CUIT": "27046709530", "InstitucionPresentacion": "Circulo de Rosario", "Entidad": "COFA", "PAIS": "Argentina" }, "geometry": { "type": "Point", "coordinates": [ -60.625532831, -32.954545878 ] } },
{ "type": "Feature", "properties": { "CodigoHomologado": "909013392", "Nombre": "SARAVALLI", "Direccion": "Paraguay 1402", "Provincia": "Santa Fe", "Localidad": "Rosario", "CodigoPostal": "2000", "CUIT": "27042337337", "InstitucionPresentacion": "Circulo de Rosario", "Entidad": "COFA", "PAIS": "Argentina" }, "geometry": { "type": "Point", "coordinates": [ -60.6456748, -32.9529471 ] } },
{ "type": "Feature", "properties": { "CodigoHomologado": "909019705", "Nombre": "HAMANN", "Direccion": "Entre Rios 3431", "Provincia": "Santa Fe", "Localidad": "Rosario", "CodigoPostal": "2000", "CUIT": "27045191155", "InstitucionPresentacion": "Camara de Santa Fe", "Entidad": "Facaf", "PAIS": "Argentina" }, "geometry": { "type": "Point", "coordinates": [ -60.648646253, -32.976746747 ] } },
{ "type": "Feature", "properties": { "CodigoHomologado": "909204023", "Nombre": "SANTA ROSA", "Direccion": "Italia 2707", "Provincia": "Santa Fe", "Localidad": "Rosario", "CodigoPostal": "2000", "CUIT": "27225994345", "InstitucionPresentacion": "Colegio de Santa Fe 2da.Circ.", "Entidad": "Fefara", "PAIS": "Argentina" }, "geometry": { "type": "Point", "coordinates": [ -60.653491924, -32.967288576 ] } },
{ "type": "Feature", "properties": { "CodigoHomologado": "909011523", "Nombre": "GEREMIA", "Direccion": "San Martin 2030", "Provincia": "Santa Fe", "Localidad": "Villa Gobernador Galvez", "CodigoPostal": "2124", "CUIT": "23114416274", "InstitucionPresentacion": "Circulo de Rosario", "Entidad": "COFA", "PAIS": "Argentina" }, "geometry": { "type": "Point", "coordinates": [ -60.6541178, -33.0250039 ] } },
{ "type": "Feature", "properties": { "CodigoHomologado": "909203909", "Nombre": "MARTINEZ", "Direccion": "Uruguay 110", "Provincia": "Santa Fe", "Localidad": "Rosario", "CodigoPostal": "2000", "CUIT": "27134497225", "InstitucionPresentacion": "Colegio de Santa Fe 2da.Circ.", "Entidad": "Fefara", "PAIS": "Argentina" }, "geometry": { "type": "Point", "coordinates": [ -60.7010884, -32.9683495 ] } },
{ "type": "Feature", "properties": { "CodigoHomologado": "909015039", "Nombre": "HUGO CRESPO", "Direccion": "Abanderado Grandoli 4707", "Provincia": "Santa Fe", "Localidad": "Rosario", "CodigoPostal": "2000", "CUIT": "20083441004", "InstitucionPresentacion": "Colegio de Santa Fe 2da.Circ.", "Entidad": "Fefara", "PAIS": "Argentina" }, "geometry": { "type": "Point", "coordinates": [ -60.8251822, -32.9165254 ] } },
{ "type": "Feature", "properties": { "CodigoHomologado": "909014913", "Nombre": "KOWALCZUK", "Direccion": "Tucuman 2299", "Provincia": "Santa Fe", "Localidad": "Villa Gobernador Galvez", "CodigoPostal": "2124", "CUIT": "27118733199", "InstitucionPresentacion": "Circulo de Rosario", "Entidad": "COFA", "PAIS": "Argentina" }, "geometry": { "type": "Point", "coordinates": [ -60.6193293, -33.0292375 ] } },
{ "type": "Feature", "properties": { "CodigoHomologado": "909206319", "Nombre": "VERONICA LAZARTE", "Direccion": "Casiano Casas 1870 bis", "Provincia": "Santa Fe", "Localidad": "Rosario", "CodigoPostal": "2000", "CUIT": "27237608157", "InstitucionPresentacion": "Circulo de Rosario", "Entidad": "COFA", "PAIS": "Argentina" }, "geometry": { "type": "Point", "coordinates": [ -60.713260375, -32.89773925 ] } },
{ "type": "Feature", "properties": { "CodigoHomologado": "909015645", "Nombre": "CAPPONI", "Direccion": "Mendoza 6035", "Provincia": "Santa Fe", "Localidad": "Rosario", "CodigoPostal": "2000", "CUIT": "27130933594", "InstitucionPresentacion": "Colegio de Santa Fe 2da.Circ.", "Entidad": "Fefara", "PAIS": "Argentina" }, "geometry": { "type": "Point", "coordinates": [ -60.704900196, -32.940113778 ] } },
{ "type": "Feature", "properties": { "CodigoHomologado": "909018909", "Nombre": "PARLATORE", "Direccion": "Paraguay 387", "Provincia": "Santa Fe", "Localidad": "Rosario", "CodigoPostal": "2000", "CUIT": "27182153635", "InstitucionPresentacion": "Colegio de Santa Fe 2da.Circ.", "Entidad": "Fefara", "PAIS": "Argentina" }, "geometry": { "type": "Point", "coordinates": [ -60.642445953, -32.940604608 ] } },
{ "type": "Feature", "properties": { "CodigoHomologado": "909030754", "Nombre": "TERRAZZINO", "Direccion": "Callao 935", "Provincia": "Santa Fe", "Localidad": "Rosario", "CodigoPostal": "2000", "CUIT": "23234621769", "InstitucionPresentacion": "Colegio de Santa Fe 2da.Circ.", "Entidad": "Fefara", "PAIS": "Argentina" }, "geometry": { "type": "Point", "coordinates": [ -60.660484204, -32.944246235 ] } },
{ "type": "Feature", "properties": { "CodigoHomologado": "909010775", "Nombre": "COLON", "Direccion": "Urquiza 2147", "Provincia": "Santa Fe", "Localidad": "Rosario", "CodigoPostal": "2000", "CUIT": "27063781342", "InstitucionPresentacion": "Circulo de Rosario", "Entidad": "COFA", "PAIS": "Argentina" }, "geometry": { "type": "Point", "coordinates": [ -60.651648922, -32.940447516 ] } },
{ "type": "Feature", "properties": { "CodigoHomologado": "909017915", "Nombre": "FLAVIO ROSSI", "Direccion": "Dorrego 91", "Provincia": "Santa Fe", "Localidad": "Rosario", "CodigoPostal": "2000", "CUIT": "20171523118", "InstitucionPresentacion": "Colegio de Santa Fe 2da.Circ.", "Entidad": "Fefara", "PAIS": "Argentina" }, "geometry": { "type": "Point", "coordinates": [ -60.647032157, -32.936172159 ] } },
{ "type": "Feature", "properties": { "CodigoHomologado": "909015151", "Nombre": "CASA", "Direccion": "Baigorria 1710", "Provincia": "Santa Fe", "Localidad": "Rosario", "CodigoPostal": "2000", "CUIT": "27114456603", "InstitucionPresentacion": "Circulo de Rosario", "Entidad": "COFA", "PAIS": "Argentina" }, "geometry": { "type": "Point", "coordinates": [ -60.7200076, -32.8931687 ] } },
{ "type": "Feature", "properties": { "CodigoHomologado": "909014028", "Nombre": "RABOZZI", "Direccion": "Leiva 6007", "Provincia": "Santa Fe", "Localidad": "Rosario", "CodigoPostal": "2000", "CUIT": "27127364279", "InstitucionPresentacion": "Circulo de Rosario", "Entidad": "COFA", "PAIS": "Argentina" }, "geometry": { "type": "Point", "coordinates": [ -60.6376255, -33.0095832 ] } },
{ "type": "Feature", "properties": { "CodigoHomologado": "909012347", "Nombre": "MC CLYMONT", "Direccion": "Salta 2398", "Provincia": "Santa Fe", "Localidad": "Rosario", "CodigoPostal": "2000", "CUIT": "20135028771", "InstitucionPresentacion": "Colegio de Santa Fe 2da.Circ.", "Entidad": "Fefara", "PAIS": "Argentina" }, "geometry": { "type": "Point", "coordinates": [ -60.654039071, -32.936198312 ] } },
{ "type": "Feature", "properties": { "CodigoHomologado": "909015815", "Nombre": "FARINA", "Direccion": "Santa Fe 3304", "Provincia": "Santa Fe", "Localidad": "Rosario", "CodigoPostal": "2000", "CUIT": "27149729157", "InstitucionPresentacion": "Colegio de Santa Fe 2da.Circ.", "Entidad": "Fefara", "PAIS": "Argentina" }, "geometry": { "type": "Point", "coordinates": [ -60.668088822, -32.939578976 ] } },
{ "type": "Feature", "properties": { "CodigoHomologado": "909010884", "Nombre": "CHOIHETTE", "Direccion": "San Martin 4842", "Provincia": "Santa Fe", "Localidad": "Rosario", "CodigoPostal": "2000", "CUIT": "27033361802", "InstitucionPresentacion": "Colegio de Santa Fe 2da.Circ.", "Entidad": "Fefara", "PAIS": "Argentina" }, "geometry": { "type": "Point", "coordinates": [ -60.5019727, -33.164072 ] } },
{ "type": "Feature", "properties": { "CodigoHomologado": "909015257", "Nombre": "GIOVINAZZO", "Direccion": "Casiano Casas 1284", "Provincia": "Santa Fe", "Localidad": "Rosario", "CodigoPostal": "2000", "CUIT": "27255881863", "InstitucionPresentacion": "Colegio de Santa Fe 2da.Circ.", "Entidad": "Fefara", "PAIS": "Argentina" }, "geometry": { "type": "Point", "coordinates": [ -60.713260375, -32.89773925 ] } },
{ "type": "Feature", "properties": { "CodigoHomologado": "909017282", "Nombre": "ORLANDI  (EX DEL PUEBLO)", "Direccion": "San Martin 3098", "Provincia": "Santa Fe", "Localidad": "Rosario", "CodigoPostal": "2000", "CUIT": "27176683525", "InstitucionPresentacion": "Colegio de Santa Fe 2da.Circ.", "Entidad": "Fefara", "PAIS": "Argentina" }, "geometry": { "type": "Point", "coordinates": [ -60.8778591, -33.0200952 ] } },
{ "type": "Feature", "properties": { "CodigoHomologado": "909016114", "Nombre": "BIRCHER", "Direccion": "Av. Genova 2363", "Provincia": "Santa Fe", "Localidad": "Rosario", "CodigoPostal": "2000", "CUIT": "27100574778", "InstitucionPresentacion": "Circulo de Rosario", "Entidad": "COFA", "PAIS": "Argentina" }, "geometry": { "type": "Point", "coordinates": [ -60.7600511, -32.9172778 ] } },
{ "type": "Feature", "properties": { "CodigoHomologado": "909015288", "Nombre": "MARCHETTI", "Direccion": "Santa Fe 1631", "Provincia": "Santa Fe", "Localidad": "Funes", "CodigoPostal": "2132", "CUIT": "27023835024", "InstitucionPresentacion": "Colegio de Santa Fe 2da.Circ.", "Entidad": "Fefara", "PAIS": "Argentina" }, "geometry": { "type": "Point", "coordinates": [ -60.810659315, -32.91840035 ] } },
{ "type": "Feature", "properties": { "CodigoHomologado": "909018245", "Nombre": "RESTA", "Direccion": "Biedma 3086", "Provincia": "Santa Fe", "Localidad": "Rosario", "CodigoPostal": "2000", "CUIT": "23165363574", "InstitucionPresentacion": "Circulo de Rosario", "Entidad": "COFA", "PAIS": "Argentina" }, "geometry": { "type": "Point", "coordinates": [ -60.6852136, -32.9745769 ] } },
{ "type": "Feature", "properties": { "CodigoHomologado": "909012612", "Nombre": "MOROSINI", "Direccion": "Junin 1996", "Provincia": "Santa Fe", "Localidad": "Rosario", "CodigoPostal": "2000", "CUIT": "23172760694", "InstitucionPresentacion": "Colegio de Santa Fe 2da.Circ.", "Entidad": "Fefara", "PAIS": "Argentina" }, "geometry": { "type": "Point", "coordinates": [ -60.719627155, -32.854836873 ] } },
{ "type": "Feature", "properties": { "CodigoHomologado": "909205312", "Nombre": "SCHROPP", "Direccion": "Arenales 250", "Provincia": "Santa Fe", "Localidad": "Granadero Baigorria", "CodigoPostal": "2152", "CUIT": "27185155809", "InstitucionPresentacion": "Colegio de Santa Fe 2da.Circ.", "Entidad": "Fefara", "PAIS": "Argentina" }, "geometry": { "type": "Point", "coordinates": [ -60.707454792, -32.859147817 ] } },
{ "type": "Feature", "properties": { "CodigoHomologado": "909018446", "Nombre": "COLLOMB", "Direccion": "Cordoba 4313", "Provincia": "Santa Fe", "Localidad": "Rosario", "CodigoPostal": "2000", "CUIT": "20167777032", "InstitucionPresentacion": "Circulo de Rosario", "Entidad": "COFA", "PAIS": "Argentina" }, "geometry": { "type": "Point", "coordinates": [ -60.842203014, -32.916726143 ] } },
{ "type": "Feature", "properties": { "CodigoHomologado": "909018586", "Nombre": "GONZALEZ CALVO", "Direccion": "27 de Febrero 1499", "Provincia": "Santa Fe", "Localidad": "Rosario", "CodigoPostal": "2000", "CUIT": "27127209613", "InstitucionPresentacion": "Camara de Santa Fe", "Entidad": "Facaf", "PAIS": "Argentina" }, "geometry": { "type": "Point", "coordinates": [ -60.6489907, -32.966816 ] } },
{ "type": "Feature", "properties": { "CodigoHomologado": "909020791", "Nombre": "RUCCI", "Direccion": "Av. San Martin 943", "Provincia": "Santa Fe", "Localidad": "San Lorenzo", "CodigoPostal": "2200", "CUIT": "27117412372", "InstitucionPresentacion": "Colegio de Santa Fe 2da.Circ.", "Entidad": "Fefara", "PAIS": "Argentina" }, "geometry": { "type": "Point", "coordinates": [ -60.734423186, -32.7519983 ] } },
{ "type": "Feature", "properties": { "CodigoHomologado": "909016411", "Nombre": "RENZ", "Direccion": "Cordoba 1392", "Provincia": "Santa Fe", "Localidad": "Funes", "CodigoPostal": "2132", "CUIT": "27162578265", "InstitucionPresentacion": "Colegio de Santa Fe 2da.Circ.", "Entidad": "Fefara", "PAIS": "Argentina" }, "geometry": { "type": "Point", "coordinates": [ -60.808139, -32.921905 ] } },
{ "type": "Feature", "properties": { "CodigoHomologado": "909025442", "Nombre": "DEL SARTO", "Direccion": "Belgrano 998", "Provincia": "Santa Fe", "Localidad": "Villa Constitucion", "CodigoPostal": "2919", "CUIT": "20171945829", "InstitucionPresentacion": "Colegio de Santa Fe 2da.Circ.", "Entidad": "Fefara", "PAIS": "Argentina" }, "geometry": { "type": "Point", "coordinates": [ -60.3322347, -33.2271054 ] } },
{ "type": "Feature", "properties": { "CodigoHomologado": "909013777", "Nombre": "PEDRO GONZALEZ", "Direccion": "Alem 2402", "Provincia": "Santa Fe", "Localidad": "Rosario", "CodigoPostal": "2000", "CUIT": "23111270449", "InstitucionPresentacion": "Circulo de Rosario", "Entidad": "COFA", "PAIS": "Argentina" }, "geometry": { "type": "Point", "coordinates": [ -60.6331907, -32.9672012 ] } },
{ "type": "Feature", "properties": { "CodigoHomologado": "909015771", "Nombre": "ABRUZZO", "Direccion": "Iriondo 2998", "Provincia": "Santa Fe", "Localidad": "Rosario", "CodigoPostal": "2000", "CUIT": "27140874944", "InstitucionPresentacion": "Colegio de Santa Fe 2da.Circ.", "Entidad": "Fefara", "PAIS": "Argentina" }, "geometry": { "type": "Point", "coordinates": [ -60.676140955, -32.966413006 ] } },
{ "type": "Feature", "properties": { "CodigoHomologado": "909026065", "Nombre": "LABORET", "Direccion": "Garibaldi 801", "Provincia": "Santa Fe", "Localidad": "Carreras", "CodigoPostal": "2729", "CUIT": "23185937534", "InstitucionPresentacion": "Colegio de Santa Fe 2da.Circ.", "Entidad": "Fefara", "PAIS": "Argentina" }, "geometry": { "type": "Point", "coordinates": [ -61.3107729, -33.5967807 ] } },
{ "type": "Feature", "properties": { "CodigoHomologado": "909016145", "Nombre": "FRONTONS", "Direccion": "Juan Jose Paso 6045", "Provincia": "Santa Fe", "Localidad": "Rosario", "CodigoPostal": "2000", "CUIT": "23144405404", "InstitucionPresentacion": "Circulo de Rosario", "Entidad": "COFA", "PAIS": "Argentina" }, "geometry": { "type": "Point", "coordinates": [ -60.6296481, -33.0352287 ] } },
{ "type": "Feature", "properties": { "CodigoHomologado": "909018228", "Nombre": "EDGARDO YAFFE", "Direccion": "1ro de Mayo 912", "Provincia": "Santa Fe", "Localidad": "Rosario", "CodigoPostal": "2000", "CUIT": "20178195922", "InstitucionPresentacion": "Colegio de Santa Fe 2da.Circ.", "Entidad": "Fefara", "PAIS": "Argentina" }, "geometry": { "type": "Point", "coordinates": [ -60.8554787, -32.9148457 ] } },
{ "type": "Feature", "properties": { "CodigoHomologado": "909024371", "Nombre": "MUTUAL EMPALME CENTRAL", "Direccion": "Av.San Martin 301", "Provincia": "Santa Fe", "Localidad": "Empalme Villa Constitucion", "CodigoPostal": "2918", "CUIT": "30619022110", "InstitucionPresentacion": "Asociacion Mutuales y Sindicales R.A.", "Entidad": "Sindical", "PAIS": "Argentina" }, "geometry": { "type": "Point", "coordinates": [ -60.3805724, -33.2585672 ] } },
{ "type": "Feature", "properties": { "CodigoHomologado": "909018463", "Nombre": "LO MORO", "Direccion": "San Lorenzo 1888", "Provincia": "Santa Fe", "Localidad": "Rosario", "CodigoPostal": "2000", "CUIT": "27180439450", "InstitucionPresentacion": "Colegio de Santa Fe 2da.Circ.", "Entidad": "Fefara", "PAIS": "Argentina" }, "geometry": { "type": "Point", "coordinates": [ -60.648274084, -32.942170129 ] } },
{ "type": "Feature", "properties": { "CodigoHomologado": "909017745", "Nombre": "ALBERDI", "Direccion": "Av. Alberdi 669", "Provincia": "Santa Fe", "Localidad": "Rosario", "CodigoPostal": "2000", "CUIT": "27171945629", "InstitucionPresentacion": "Colegio de Santa Fe 2da.Circ.", "Entidad": "Fefara", "PAIS": "Argentina" }, "geometry": { "type": "Point", "coordinates": [ -60.6822282, -32.9198552 ] } },
{ "type": "Feature", "properties": { "CodigoHomologado": "909016071", "Nombre": "AGUIRRE", "Direccion": "Av. Filippini 1872", "Provincia": "Santa Fe", "Localidad": "Villa Gobernador Galvez", "CodigoPostal": "2124", "CUIT": "27125006049", "InstitucionPresentacion": "Circulo de Rosario", "Entidad": "COFA", "PAIS": "Argentina" }, "geometry": { "type": "Point", "coordinates": [ -60.6373519, -33.0292022 ] } },
{ "type": "Feature", "properties": { "CodigoHomologado": "923200045", "Nombre": "FERREYRA SCS", "Direccion": "Av. 9 de julio 501", "Provincia": "Formosa", "Localidad": "Formosa", "CodigoPostal": "3600", "CUIT": "30590862319", "InstitucionPresentacion": "CAMARA DE FORMOSA", "Entidad": "Facaf", "PAIS": "Argentina" }, "geometry": { "type": "Point", "coordinates": [ -58.1757899, -26.1822334 ] } },
{ "type": "Feature", "properties": { "CodigoHomologado": "909018930", "Nombre": "CAPETTINI", "Direccion": "Matienzo 2002", "Provincia": "Santa Fe", "Localidad": "Rosario", "CodigoPostal": "2000", "CUIT": "27148886828", "InstitucionPresentacion": "Colegio de Santa Fe 2da.Circ.", "Entidad": "Fefara", "PAIS": "Argentina" }, "geometry": { "type": "Point", "coordinates": [ -60.6948999, -32.9340297 ] } },
{ "type": "Feature", "properties": { "CodigoHomologado": "909016520", "Nombre": "VEGA", "Direccion": "Pasteur 2298", "Provincia": "Santa Fe", "Localidad": "Villa Gobernador Galvez", "CodigoPostal": "2124", "CUIT": "27139116718", "InstitucionPresentacion": "Circulo de Rosario", "Entidad": "COFA", "PAIS": "Argentina" }, "geometry": { "type": "Point", "coordinates": [ -60.6263996, -33.0258101 ] } },
{ "type": "Feature", "properties": { "CodigoHomologado": "909030458", "Nombre": "SIND.LUZ Y FUERZA", "Direccion": "Entre Rios 982", "Provincia": "Santa Fe", "Localidad": "Rosario", "CodigoPostal": "2000", "CUIT": "30550984853", "InstitucionPresentacion": "Asociacion Mutuales y Sindicales R.A.", "Entidad": "Sindical", "PAIS": "Argentina" }, "geometry": { "type": "Point", "coordinates": [ -60.641534194, -32.948242214 ] } },
{ "type": "Feature", "properties": { "CodigoHomologado": "909203341", "Nombre": "GENOVA", "Direccion": "Genova 1199", "Provincia": "Santa Fe", "Localidad": "Rosario", "CodigoPostal": "2000", "CUIT": "27234659869", "InstitucionPresentacion": "Colegio de Santa Fe 2da.Circ.", "Entidad": "Fefara", "PAIS": "Argentina" }, "geometry": { "type": "Point", "coordinates": [ -60.7600511, -32.9172778 ] } },
{ "type": "Feature", "properties": { "CodigoHomologado": "909017326", "Nombre": "PENOTI", "Direccion": "Mendoza 7211", "Provincia": "Santa Fe", "Localidad": "Rosario", "CodigoPostal": "2000", "CUIT": "27164913754", "InstitucionPresentacion": "Circulo de Rosario", "Entidad": "COFA", "PAIS": "Argentina" }, "geometry": { "type": "Point", "coordinates": [ -60.718639469, -32.940552671 ] } },
{ "type": "Feature", "properties": { "CodigoHomologado": "909018511", "Nombre": "ROLDAN", "Direccion": "Balcarce 162", "Provincia": "Santa Fe", "Localidad": "Rosario", "CodigoPostal": "2000", "CUIT": "27177167237", "InstitucionPresentacion": "Circulo de Rosario", "Entidad": "COFA", "PAIS": "Argentina" }, "geometry": { "type": "Point", "coordinates": [ -60.649232567, -32.93278462 ] } },
{ "type": "Feature", "properties": { "CodigoHomologado": "909011170", "Nombre": "ESCOBAR", "Direccion": "Fragata Sarmiento 3019", "Provincia": "Santa Fe", "Localidad": "Rosario", "CodigoPostal": "2000", "CUIT": "27105947599", "InstitucionPresentacion": "Circulo de Rosario", "Entidad": "COFA", "PAIS": "Argentina" }, "geometry": { "type": "Point", "coordinates": [ -60.6718211, -32.9889093 ] } },
{ "type": "Feature", "properties": { "CodigoHomologado": "909025565", "Nombre": "CALLEGARI", "Direccion": "Mendoza 930", "Provincia": "Santa Fe", "Localidad": "Villa Constitucion", "CodigoPostal": "2919", "CUIT": "20183412583", "InstitucionPresentacion": "Colegio de Santa Fe 2da.Circ.", "Entidad": "Fefara", "PAIS": "Argentina" }, "geometry": { "type": "Point", "coordinates": [ -60.331424667, -33.233802137 ] } },
{ "type": "Feature", "properties": { "CodigoHomologado": "909200341", "Nombre": "TURIN", "Direccion": "San Martin 5386", "Provincia": "Santa Fe", "Localidad": "Rosario", "CodigoPostal": "2000", "CUIT": "20146851909", "InstitucionPresentacion": "Colegio de Santa Fe 2da.Circ.", "Entidad": "Fefara", "PAIS": "Argentina" }, "geometry": { "type": "Point", "coordinates": [ -60.5019727, -33.164072 ] } },
{ "type": "Feature", "properties": { "CodigoHomologado": "909023758", "Nombre": "GAIA", "Direccion": "Jujuy 573", "Provincia": "Santa Fe", "Localidad": "Capitan Bermudez", "CodigoPostal": "2154", "CUIT": "27126177254", "InstitucionPresentacion": "Colegio de Santa Fe 2da.Circ.", "Entidad": "Fefara", "PAIS": "Argentina" }, "geometry": { "type": "Point", "coordinates": [ -60.7175029, -32.8242783 ] } },
{ "type": "Feature", "properties": { "CodigoHomologado": "909019814", "Nombre": "SARTOR", "Direccion": "Rioja 1909", "Provincia": "Santa Fe", "Localidad": "Rosario", "CodigoPostal": "2000", "CUIT": "27111025997", "InstitucionPresentacion": "Colegio de Santa Fe 2da.Circ.", "Entidad": "Fefara", "PAIS": "Argentina" }, "geometry": { "type": "Point", "coordinates": [ -60.649697808, -32.945627706 ] } },
{ "type": "Feature", "properties": { "CodigoHomologado": "909016394", "Nombre": "YASPARRA", "Direccion": "Montevideo 1364", "Provincia": "Santa Fe", "Localidad": "Rosario", "CodigoPostal": "2000", "CUIT": "27127208617", "InstitucionPresentacion": "Circulo de Rosario", "Entidad": "COFA", "PAIS": "Argentina" }, "geometry": { "type": "Point", "coordinates": [ -60.644219516, -32.955434167 ] } },
{ "type": "Feature", "properties": { "CodigoHomologado": "909205248", "Nombre": "CAPOZZI", "Direccion": "Av.San Martin 2365", "Provincia": "Santa Fe", "Localidad": "Villa Gobernador Galvez", "CodigoPostal": "2124", "CUIT": "27237164763", "InstitucionPresentacion": "Circulo de Rosario", "Entidad": "COFA", "PAIS": "Argentina" }, "geometry": { "type": "Point", "coordinates": [ -60.6057516, -33.0478901 ] } },
{ "type": "Feature", "properties": { "CodigoHomologado": "909019164", "Nombre": "BERGONZI", "Direccion": "Salta 1975", "Provincia": "Santa Fe", "Localidad": "Rosario", "CodigoPostal": "2000", "CUIT": "27174600096", "InstitucionPresentacion": "Colegio de Santa Fe 2da.Circ.", "Entidad": "Fefara", "PAIS": "Argentina" }, "geometry": { "type": "Point", "coordinates": [ -60.648381912, -32.937362455 ] } },
{ "type": "Feature", "properties": { "CodigoHomologado": "909016005", "Nombre": "RABITO", "Direccion": "Berrini 2275", "Provincia": "Santa Fe", "Localidad": "Rosario", "CodigoPostal": "2000", "CUIT": "27066518103", "InstitucionPresentacion": "Circulo de Rosario", "Entidad": "COFA", "PAIS": "Argentina" }, "geometry": { "type": "Point", "coordinates": [ -60.7137846, -32.8885149 ] } },
{ "type": "Feature", "properties": { "CodigoHomologado": "909207101", "Nombre": "SAN JORGE", "Direccion": "Av.Pellegrini 809", "Provincia": "Santa Fe", "Localidad": "Rosario", "CodigoPostal": "2000", "CUIT": "20203921218", "InstitucionPresentacion": "Colegio de Santa Fe 2da.Circ.", "Entidad": "Fefara", "PAIS": "Argentina" }, "geometry": { "type": "Point", "coordinates": [ -60.6152615, -33.0586454 ] } },
{ "type": "Feature", "properties": { "CodigoHomologado": "909018385", "Nombre": "RAGAZZO", "Direccion": "Constitucion 940", "Provincia": "Santa Fe", "Localidad": "Rosario", "CodigoPostal": "2000", "CUIT": "27180747171", "InstitucionPresentacion": "Colegio de Santa Fe 2da.Circ.", "Entidad": "Fefara", "PAIS": "Argentina" }, "geometry": { "type": "Point", "coordinates": [ -60.674231114, -32.941808414 ] } },
{ "type": "Feature", "properties": { "CodigoHomologado": "909025688", "Nombre": "TRIONFETTI", "Direccion": "Alberdi 402", "Provincia": "Santa Fe", "Localidad": "Roldan", "CodigoPostal": "2134", "CUIT": "20202179976", "InstitucionPresentacion": "Colegio de Santa Fe 2da.Circ.", "Entidad": "Fefara", "PAIS": "Argentina" }, "geometry": { "type": "Point", "coordinates": [ -60.9056734, -32.9039869 ] } },
{ "type": "Feature", "properties": { "CodigoHomologado": "909030011", "Nombre": "PUIGDOMENECH", "Direccion": "Martin Fierro 666", "Provincia": "Santa Fe", "Localidad": "Rosario", "CodigoPostal": "2000", "CUIT": "23169427429", "InstitucionPresentacion": "Colegio de Santa Fe 2da.Circ.", "Entidad": "Fefara", "PAIS": "Argentina" }, "geometry": { "type": "Point", "coordinates": [ -60.7801117, -32.9939254 ] } },
{ "type": "Feature", "properties": { "CodigoHomologado": "909206292", "Nombre": "BAHIA", "Direccion": "Bahia Blanca 388 Bis", "Provincia": "Santa Fe", "Localidad": "Rosario", "CodigoPostal": "2000", "CUIT": "27139589888", "InstitucionPresentacion": "Circulo de Rosario", "Entidad": "COFA", "PAIS": "Argentina" }, "geometry": { "type": "Point", "coordinates": [ -60.6889447, -32.919753 ] } },
{ "type": "Feature", "properties": { "CodigoHomologado": "909023901", "Nombre": "REINALDI", "Direccion": "Av. 18  No.756", "Provincia": "Santa Fe", "Localidad": "Las Parejas", "CodigoPostal": "2505", "CUIT": "27120505667", "InstitucionPresentacion": "Colegio de Santa Fe 2da.Circ.", "Entidad": "Fefara", "PAIS": "Argentina" }, "geometry": { "type": "Point", "coordinates": [ -61.5164622, -32.6883217 ] } },
{ "type": "Feature", "properties": { "CodigoHomologado": "915006885", "Nombre": "CASTAÑO", "Direccion": "Belgrano 2110", "Provincia": "Santa Fe", "Localidad": "Coronda", "CodigoPostal": "2240", "CUIT": "20133165763", "InstitucionPresentacion": "Colegio de Santa Fe 1ra.Circ.", "Entidad": "Fefara", "PAIS": "Argentina" }, "geometry": { "type": "Point", "coordinates": [ -60.9242311, -31.9836651 ] } },
{ "type": "Feature", "properties": { "CodigoHomologado": "909017619", "Nombre": "RIDAO", "Direccion": "Moreno 40 bis", "Provincia": "Santa Fe", "Localidad": "Rosario", "CodigoPostal": "2000", "CUIT": "27127255844", "InstitucionPresentacion": "Circulo de Rosario", "Entidad": "COFA", "PAIS": "Argentina" }, "geometry": { "type": "Point", "coordinates": [ -60.702871035, -32.862724287 ] } },
{ "type": "Feature", "properties": { "CodigoHomologado": "909206510", "Nombre": "NOBILE", "Direccion": "27 de Febrero 6016", "Provincia": "Santa Fe", "Localidad": "Rosario", "CodigoPostal": "2000", "CUIT": "20103975701", "InstitucionPresentacion": "Colegio de Santa Fe 2da.Circ.", "Entidad": "Fefara", "PAIS": "Argentina" }, "geometry": { "type": "Point", "coordinates": [ -60.704055214, -32.958997443 ] } },
{ "type": "Feature", "properties": { "CodigoHomologado": "909205915", "Nombre": "AVENIDA", "Direccion": "Av.Alberdi 1098", "Provincia": "Santa Fe", "Localidad": "Rosario", "CodigoPostal": "2000", "CUIT": "27174605632", "InstitucionPresentacion": "Colegio de Santa Fe 2da.Circ.", "Entidad": "Fefara", "PAIS": "Argentina" }, "geometry": { "type": "Point", "coordinates": [ -60.6852504, -32.9153364 ] } },
{ "type": "Feature", "properties": { "CodigoHomologado": "909209370", "Nombre": "FEIOCK", "Direccion": "San Nicolas 3798", "Provincia": "Santa Fe", "Localidad": "Rosario", "CodigoPostal": "2000", "CUIT": "27175192870", "InstitucionPresentacion": "Colegio de Santa Fe 2da.Circ.", "Entidad": "Fefara", "PAIS": "Argentina" }, "geometry": { "type": "Point", "coordinates": [ -60.6726199, -32.9415172 ] } },
{ "type": "Feature", "properties": { "CodigoHomologado": "909018590", "Nombre": "DESMEDT", "Direccion": "Nicaragua 671 bis", "Provincia": "Santa Fe", "Localidad": "Rosario", "CodigoPostal": "2000", "CUIT": "27058036140", "InstitucionPresentacion": "Circulo de Rosario", "Entidad": "COFA", "PAIS": "Argentina" }, "geometry": { "type": "Point", "coordinates": [ -60.7202876, -32.9493572 ] } },
{ "type": "Feature", "properties": { "CodigoHomologado": "909013051", "Nombre": "RADICCI", "Direccion": "Mitre 1399", "Provincia": "Santa Fe", "Localidad": "Villa Gobernador Galvez", "CodigoPostal": "2124", "CUIT": "20060191248", "InstitucionPresentacion": "Circulo de Rosario", "Entidad": "COFA", "PAIS": "Argentina" }, "geometry": { "type": "Point", "coordinates": [ -60.6315897, -33.0245361 ] } },
{ "type": "Feature", "properties": { "CodigoHomologado": "909010220", "Nombre": "ARGUTTI", "Direccion": "Juan B. Justo 374", "Provincia": "Santa Fe", "Localidad": "Arroyo Seco", "CodigoPostal": "2128", "CUIT": "27134133266", "InstitucionPresentacion": "Circulo de Rosario", "Entidad": "COFA", "PAIS": "Argentina" }, "geometry": { "type": "Point", "coordinates": [ -60.5104601, -33.147731 ] } },
{ "type": "Feature", "properties": { "CodigoHomologado": "909016717", "Nombre": "DI SIMONE", "Direccion": "Tarragona 1228 Bis", "Provincia": "Santa Fe", "Localidad": "Rosario", "CodigoPostal": "2000", "CUIT": "27166907336", "InstitucionPresentacion": "Colegio de Santa Fe 2da.Circ.", "Entidad": "Fefara", "PAIS": "Argentina" }, "geometry": { "type": "Point", "coordinates": [ -60.7354968, -32.9077478 ] } },
{ "type": "Feature", "properties": { "CodigoHomologado": "909010448", "Nombre": "BERTERO", "Direccion": "Cordoba 7025", "Provincia": "Santa Fe", "Localidad": "Rosario", "CodigoPostal": "2000", "CUIT": "20108664712", "InstitucionPresentacion": "Colegio de Santa Fe 2da.Circ.", "Entidad": "Fefara", "PAIS": "Argentina" }, "geometry": { "type": "Point", "coordinates": [ -60.7395552, -32.9280939 ] } },
{ "type": "Feature", "properties": { "CodigoHomologado": "909013978", "Nombre": "GRASSI", "Direccion": "Sarmiento 641", "Provincia": "Santa Fe", "Localidad": "Arroyo Seco", "CodigoPostal": "2128", "CUIT": "27116683682", "InstitucionPresentacion": "Circulo de Rosario", "Entidad": "COFA", "PAIS": "Argentina" }, "geometry": { "type": "Point", "coordinates": [ -60.5190696, -33.1578321 ] } },
{ "type": "Feature", "properties": { "CodigoHomologado": "909017762", "Nombre": "VIDAL", "Direccion": "San Nicolas 301", "Provincia": "Santa Fe", "Localidad": "Rosario", "CodigoPostal": "2000", "CUIT": "27116729623", "InstitucionPresentacion": "Colegio de Santa Fe 2da.Circ.", "Entidad": "Fefara", "PAIS": "Argentina" }, "geometry": { "type": "Point", "coordinates": [ -60.6708405, -32.934682 ] } },
{ "type": "Feature", "properties": { "CodigoHomologado": "915007167", "Nombre": "ITALIANA", "Direccion": "San Martin 501", "Provincia": "Santa Fe", "Localidad": "Galvez", "CodigoPostal": "2252", "CUIT": "27105934349", "InstitucionPresentacion": "Colegio de Santa Fe 1ra.Circ.", "Entidad": "Fefara", "PAIS": "Argentina" }, "geometry": { "type": "Point", "coordinates": [ -61.2215415, -32.0310743 ] } },
{ "type": "Feature", "properties": { "CodigoHomologado": "915007171", "Nombre": "RAMPONE", "Direccion": "Belgrano 699", "Provincia": "Santa Fe", "Localidad": "Galvez", "CodigoPostal": "2252", "CUIT": "20175823698", "InstitucionPresentacion": "Colegio de Santa Fe 1ra.Circ.", "Entidad": "Fefara", "PAIS": "Argentina" }, "geometry": { "type": "Point", "coordinates": [ -61.2194519, -32.0315603 ] } },
{ "type": "Feature", "properties": { "CodigoHomologado": "909204351", "Nombre": "FERRAN", "Direccion": "Sarmiento 3098", "Provincia": "Santa Fe", "Localidad": "Rosario", "CodigoPostal": "2000", "CUIT": "27134482511", "InstitucionPresentacion": "Colegio de Santa Fe 2da.Circ.", "Entidad": "Fefara", "PAIS": "Argentina" }, "geometry": { "type": "Point", "coordinates": [ -60.645028556, -32.9732038 ] } },
{ "type": "Feature", "properties": { "CodigoHomologado": "909205081", "Nombre": "LAGRECA", "Direccion": "3 de febrero 2690", "Provincia": "Santa Fe", "Localidad": "Rosario", "CodigoPostal": "2000", "CUIT": "27135881444", "InstitucionPresentacion": "Circulo de Rosario", "Entidad": "COFA", "PAIS": "Argentina" }, "geometry": { "type": "Point", "coordinates": [ -60.661398388, -32.948868222 ] } },
{ "type": "Feature", "properties": { "CodigoHomologado": "909019862", "Nombre": "DADAMO", "Direccion": "Rueda 1851", "Provincia": "Santa Fe", "Localidad": "Rosario", "CodigoPostal": "2000", "CUIT": "27140811748", "InstitucionPresentacion": "Colegio de Santa Fe 2da.Circ.", "Entidad": "Fefara", "PAIS": "Argentina" }, "geometry": { "type": "Point", "coordinates": [ -60.654721853, -32.96928482 ] } },
{ "type": "Feature", "properties": { "CodigoHomologado": "909017047", "Nombre": "SAGRIPANTI", "Direccion": "Jujuy 2248", "Provincia": "Santa Fe", "Localidad": "Rosario", "CodigoPostal": "2000", "CUIT": "27162673675", "InstitucionPresentacion": "Colegio de Santa Fe 2da.Circ.", "Entidad": "Fefara", "PAIS": "Argentina" }, "geometry": { "type": "Point", "coordinates": [ -60.651954843, -32.935344451 ] } },
{ "type": "Feature", "properties": { "CodigoHomologado": "909030243", "Nombre": "LUCARELLI", "Direccion": "Juan Jose Paso 7887", "Provincia": "Santa Fe", "Localidad": "Rosario", "CodigoPostal": "2000", "CUIT": "27135905300", "InstitucionPresentacion": "Camara de Santa Fe", "Entidad": "FACAF", "PAIS": "Argentina" }, "geometry": { "type": "Point", "coordinates": [ -60.6296481, -33.0352287 ] } },
{ "type": "Feature", "properties": { "CodigoHomologado": "909019260", "Nombre": "GUGLIOTTA", "Direccion": "Av. del Rosario 1401", "Provincia": "Santa Fe", "Localidad": "Rosario", "CodigoPostal": "2000", "CUIT": "27203541339", "InstitucionPresentacion": "Colegio de Santa Fe 2da.Circ.", "Entidad": "Fefara", "PAIS": "Argentina" }, "geometry": { "type": "Point", "coordinates": [ -60.8073371, -32.9163494 ] } },
{ "type": "Feature", "properties": { "CodigoHomologado": "909204439", "Nombre": "HERNANDEZ", "Direccion": "Baigorria 2131", "Provincia": "Santa Fe", "Localidad": "Rosario", "CodigoPostal": "2000", "CUIT": "27131673561", "InstitucionPresentacion": "Circulo de Rosario", "Entidad": "COFA", "PAIS": "Argentina" }, "geometry": { "type": "Point", "coordinates": [ -60.7200076, -32.8931687 ] } },
{ "type": "Feature", "properties": { "CodigoHomologado": "909208251", "Nombre": "CENTINEO", "Direccion": "Echeverria 591", "Provincia": "Santa Fe", "Localidad": "Rosario", "CodigoPostal": "2000", "CUIT": "27237603872", "InstitucionPresentacion": "Colegio de Santa Fe 2da.Circ.", "Entidad": "Fefara", "PAIS": "Argentina" }, "geometry": { "type": "Point", "coordinates": [ -60.6720874, -32.9266571 ] } },
{ "type": "Feature", "properties": { "CodigoHomologado": "909025967", "Nombre": "ARLORO", "Direccion": "San Martin 305", "Provincia": "Santa Fe", "Localidad": "Santa Teresa", "CodigoPostal": "2111", "CUIT": "27201414852", "InstitucionPresentacion": "Colegio de Santa Fe 2da.Circ.", "Entidad": "Fefara", "PAIS": "Argentina" }, "geometry": { "type": "Point", "coordinates": [ -60.7815062, -33.4351123 ] } },
{ "type": "Feature", "properties": { "CodigoHomologado": "923200603", "Nombre": "SANTA MARIA", "Direccion": "Jujuy 598", "Provincia": "Formosa", "Localidad": "Formosa", "CodigoPostal": "3600", "CUIT": "20216601190", "InstitucionPresentacion": "Federacion de Formosa", "Entidad": "COFA", "PAIS": "Argentina" }, "geometry": { "type": "Point", "coordinates": [ -58.1821084, -26.185224 ] } },
{ "type": "Feature", "properties": { "CodigoHomologado": "915203113", "Nombre": "ZENTNER", "Direccion": "San Jeronimo 3101", "Provincia": "Santa Fe", "Localidad": "Santa Fe", "CodigoPostal": "3000", "CUIT": "20280739988", "InstitucionPresentacion": "Colegio de Santa Fe 1ra.Circ.", "Entidad": "Fefara", "PAIS": "Argentina" }, "geometry": { "type": "Point", "coordinates": [ -60.692979, -31.5951678 ] } },
{ "type": "Feature", "properties": { "CodigoHomologado": "909023512", "Nombre": "ASOC.MUT.AYUDA CLUB AT.TOTORAS", "Direccion": "Las Heras 1164", "Provincia": "Santa Fe", "Localidad": "Totoras", "CodigoPostal": "2144", "CUIT": "30605152143", "InstitucionPresentacion": "Asociacion Mutuales y Sindicales R.A.", "Entidad": "Sindical", "PAIS": "Argentina" }, "geometry": { "type": "Point", "coordinates": [ -61.1682612, -32.5869641 ] } },
{ "type": "Feature", "properties": { "CodigoHomologado": "909015540", "Nombre": "GHEZZI", "Direccion": "Virasoro 1304", "Provincia": "Santa Fe", "Localidad": "Rosario", "CodigoPostal": "2000", "CUIT": "27142876448", "InstitucionPresentacion": "Colegio de Santa Fe 2da.Circ.", "Entidad": "Fefara", "PAIS": "Argentina" }, "geometry": { "type": "Point", "coordinates": [ -60.647068388, -32.969300296 ] } },
{ "type": "Feature", "properties": { "CodigoHomologado": "909016176", "Nombre": "ALEJANDRA PORTA", "Direccion": "Baigorria 1477", "Provincia": "Santa Fe", "Localidad": "Rosario", "CodigoPostal": "2000", "CUIT": "20167782583", "InstitucionPresentacion": "Colegio de Santa Fe 2da.Circ.", "Entidad": "Fefara", "PAIS": "Argentina" }, "geometry": { "type": "Point", "coordinates": [ -60.719549, -32.8932152 ] } },
{ "type": "Feature", "properties": { "CodigoHomologado": "909010618", "Nombre": "CARASSAI", "Direccion": "Pueyrredon 1070", "Provincia": "Santa Fe", "Localidad": "Fighiera", "CodigoPostal": "2126", "CUIT": "27134287778", "InstitucionPresentacion": "Circulo de Rosario", "Entidad": "COFA", "PAIS": "Argentina" }, "geometry": { "type": "Point", "coordinates": [ -60.4659412, -33.1961458 ] } },
{ "type": "Feature", "properties": { "CodigoHomologado": "909011493", "Nombre": "GASTIAZORO", "Direccion": "Mendoza 4901", "Provincia": "Santa Fe", "Localidad": "Rosario", "CodigoPostal": "2000", "CUIT": "27110346536", "InstitucionPresentacion": "Circulo de Rosario", "Entidad": "COFA", "PAIS": "Argentina" }, "geometry": { "type": "Point", "coordinates": [ -60.6914734, -32.9423391 ] } },
{ "type": "Feature", "properties": { "CodigoHomologado": "909010836", "Nombre": "CUCA", "Direccion": "Av.Uriburu 1765", "Provincia": "Santa Fe", "Localidad": "Rosario", "CodigoPostal": "2000", "CUIT": "27062107400", "InstitucionPresentacion": "Circulo de Rosario", "Entidad": "COFA", "PAIS": "Argentina" }, "geometry": { "type": "Point", "coordinates": [ -60.6890867, -32.992007 ] } },
{ "type": "Feature", "properties": { "CodigoHomologado": "909013266", "Nombre": "SAENZ PEÑA", "Direccion": "Av.Arijon 702", "Provincia": "Santa Fe", "Localidad": "Rosario", "CodigoPostal": "2000", "CUIT": "27203546373", "InstitucionPresentacion": "Circulo de Rosario", "Entidad": "COFA", "PAIS": "Argentina" }, "geometry": { "type": "Point", "coordinates": [ -60.6748263, -33.003826 ] } },
{ "type": "Feature", "properties": { "CodigoHomologado": "909018961", "Nombre": "BARATTO", "Direccion": "Belgrano 98", "Provincia": "Santa Fe", "Localidad": "Granadero Baigorria", "CodigoPostal": "2152", "CUIT": "20185196535", "InstitucionPresentacion": "Circulo de Rosario", "Entidad": "COFA", "PAIS": "Argentina" }, "geometry": { "type": "Point", "coordinates": [ -60.703191449, -32.864057388 ] } },
{ "type": "Feature", "properties": { "CodigoHomologado": "909203446", "Nombre": "PELLEGRINI", "Direccion": "Av.Pellegrini 1195\/97", "Provincia": "Santa Fe", "Localidad": "Rosario", "CodigoPostal": "2000", "CUIT": "20178192761", "InstitucionPresentacion": "Colegio de Santa Fe 2da.Circ.", "Entidad": "Fefara", "PAIS": "Argentina" }, "geometry": { "type": "Point", "coordinates": [ -60.6152615, -33.0586454 ] } },
{ "type": "Feature", "properties": { "CodigoHomologado": "909206694", "Nombre": "ARROYITO", "Direccion": "Av.Alberdi 423", "Provincia": "Santa Fe", "Localidad": "Rosario", "CodigoPostal": "2000", "CUIT": "27108661173", "InstitucionPresentacion": "Camara de Santa Fe", "Entidad": "Facaf", "PAIS": "Argentina" }, "geometry": { "type": "Point", "coordinates": [ -60.6834181, -32.918097 ] } },
{ "type": "Feature", "properties": { "CodigoHomologado": "909019504", "Nombre": "MARIA SILVIA HERNANDEZ", "Direccion": "San Juan 681", "Provincia": "Santa Fe", "Localidad": "Rosario", "CodigoPostal": "2000", "CUIT": "27201734024", "InstitucionPresentacion": "Camara de Santa Fe", "Entidad": "Facaf", "PAIS": "Argentina" }, "geometry": { "type": "Point", "coordinates": [ -60.633329337, -32.951333322 ] } },
{ "type": "Feature", "properties": { "CodigoHomologado": "909016888", "Nombre": "NOGUERA", "Direccion": "Grandoli 3697", "Provincia": "Santa Fe", "Localidad": "Rosario", "CodigoPostal": "2000", "CUIT": "27129552889", "InstitucionPresentacion": "Colegio de Santa Fe 2da.Circ.", "Entidad": "Fefara", "PAIS": "Argentina" }, "geometry": { "type": "Point", "coordinates": [ -60.6277846, -32.9927573 ] } },
{ "type": "Feature", "properties": { "CodigoHomologado": "909025875", "Nombre": "MUT. PERS. CENTRO IND. ACINDAR", "Direccion": "Belgrano 1626", "Provincia": "Santa Fe", "Localidad": "Villa Constitucion", "CodigoPostal": "2919", "CUIT": "30546172275", "InstitucionPresentacion": "Asociacion Mutuales y Sindicales R.A.", "Entidad": "Sindical", "PAIS": "Argentina" }, "geometry": { "type": "Point", "coordinates": [ -60.327678616, -33.231471729 ] } },
{ "type": "Feature", "properties": { "CodigoHomologado": "909017527", "Nombre": "CHIMINELLO", "Direccion": "San Juan 2010", "Provincia": "Santa Fe", "Localidad": "Rosario", "CodigoPostal": "2000", "CUIT": "27169850068", "InstitucionPresentacion": "Circulo de Rosario", "Entidad": "COFA", "PAIS": "Argentina" }, "geometry": { "type": "Point", "coordinates": [ -60.651722947, -32.94778908 ] } },
{ "type": "Feature", "properties": { "CodigoHomologado": "932010857", "Nombre": "ALLUCHON", "Direccion": "Olleros 55", "Provincia": "Buenos Aires", "Localidad": "San Nicolas de los Arroyos", "CodigoPostal": "2900", "CUIT": "20171393400", "InstitucionPresentacion": "Colegio de San Nicolas (Sefar)", "Entidad": "COFA", "PAIS": "Argentina" }, "geometry": { "type": "Point", "coordinates": [ -60.222769158, -33.334129458 ] } },
{ "type": "Feature", "properties": { "CodigoHomologado": "909200199", "Nombre": "DEL SIGLO", "Direccion": "Cordoba 1469", "Provincia": "Santa Fe", "Localidad": "Rosario", "CodigoPostal": "2000", "CUIT": "20160703890", "InstitucionPresentacion": "Circulo de Rosario", "Entidad": "COFA", "PAIS": "Argentina" }, "geometry": { "type": "Point", "coordinates": [ -60.643284016, -32.945547486 ] } },
{ "type": "Feature", "properties": { "CodigoHomologado": "934200187", "Nombre": "URQUIZA", "Direccion": "Urquiza 1120", "Provincia": "Entre Rios", "Localidad": "Federal", "CodigoPostal": "3180", "CUIT": "27119788965", "InstitucionPresentacion": "Colegio de Entre Rios", "Entidad": "COFA", "PAIS": "Argentina" }, "geometry": { "type": "Point", "coordinates": [ -59.0786358, -31.0515609 ] } },
{ "type": "Feature", "properties": { "CodigoHomologado": "909200201", "Nombre": "LAZARTE", "Direccion": "Superi 1466", "Provincia": "Santa Fe", "Localidad": "Rosario", "CodigoPostal": "2000", "CUIT": "27204614534", "InstitucionPresentacion": "Circulo de Rosario", "Entidad": "COFA", "PAIS": "Argentina" }, "geometry": { "type": "Point", "coordinates": [ -60.6993763, -32.8957616 ] } },
{ "type": "Feature", "properties": { "CodigoHomologado": "909019396", "Nombre": "SILVIA BARATTO", "Direccion": "Alsina 1398", "Provincia": "Santa Fe", "Localidad": "Rosario", "CodigoPostal": "2000", "CUIT": "27185324813", "InstitucionPresentacion": "Colegio de Santa Fe 2da.Circ.", "Entidad": "Fefara", "PAIS": "Argentina" }, "geometry": { "type": "Point", "coordinates": [ -60.8065246, -32.9034841 ] } },
{ "type": "Feature", "properties": { "CodigoHomologado": "909207329", "Nombre": "VIA CORDOBA", "Direccion": "Cordoba 5753 PB", "Provincia": "Santa Fe", "Localidad": "Rosario", "CodigoPostal": "2000", "CUIT": "20223001727", "InstitucionPresentacion": "Circulo de Rosario", "Entidad": "COFA", "PAIS": "Argentina" }, "geometry": { "type": "Point", "coordinates": [ -60.6696826, -32.9407942 ] } },
{ "type": "Feature", "properties": { "CodigoHomologado": "914203741", "Nombre": "MOYA", "Direccion": "9 de Julio y Eva Peron", "Provincia": "Entre Rios", "Localidad": "Diamante", "CodigoPostal": "3105", "CUIT": "27246136837", "InstitucionPresentacion": "Colegio de Entre Rios", "Entidad": "COFA", "PAIS": "Argentina" }, "geometry": { "type": "Point", "coordinates": [ -60.6431593, -32.0673435 ] } },
{ "type": "Feature", "properties": { "CodigoHomologado": "909203569", "Nombre": "LA INTERNACIONAL", "Direccion": "San Juan 3014", "Provincia": "Santa Fe", "Localidad": "Rosario", "CodigoPostal": "2000", "CUIT": "27221942766", "InstitucionPresentacion": "Colegio de Santa Fe 2da.Circ.", "Entidad": "Fefara", "PAIS": "Argentina" }, "geometry": { "type": "Point", "coordinates": [ -60.6653103, -32.9453357 ] } },
{ "type": "Feature", "properties": { "CodigoHomologado": "909018136", "Nombre": "GAUDIO", "Direccion": "General Lopez 43", "Provincia": "Santa Fe", "Localidad": "Arroyo Seco", "CodigoPostal": "2128", "CUIT": "27164984643", "InstitucionPresentacion": "Circulo de Rosario", "Entidad": "COFA", "PAIS": "Argentina" }, "geometry": { "type": "Point", "coordinates": [ -60.5091437, -33.1485151 ] } },
{ "type": "Feature", "properties": { "CodigoHomologado": "909202794", "Nombre": "CUSUMANO", "Direccion": "Av. La Plata 1660", "Provincia": "Santa Fe", "Localidad": "Carcaraña", "CodigoPostal": "2138", "CUIT": "27232424686", "InstitucionPresentacion": "Colegio de Santa Fe 2da.Circ.", "Entidad": "Fefara", "PAIS": "Argentina" }, "geometry": { "type": "Point", "coordinates": [ -61.1537649, -32.8592346 ] } },
{ "type": "Feature", "properties": { "CodigoHomologado": "909020429", "Nombre": "CIACCIO", "Direccion": "Independencia 398", "Provincia": "Santa Fe", "Localidad": "Fuentes", "CodigoPostal": "2123", "CUIT": "27104360721", "InstitucionPresentacion": "Colegio de Santa Fe 2da.Circ.", "Entidad": "Fefara", "PAIS": "Argentina" }, "geometry": { "type": "Point", "coordinates": [ -61.0773615, -33.1748457 ] } },
{ "type": "Feature", "properties": { "CodigoHomologado": "909201613", "Nombre": "MAIPU", "Direccion": "San Luis 902", "Provincia": "Santa Fe", "Localidad": "Rosario", "CodigoPostal": "2000", "CUIT": "27170542202", "InstitucionPresentacion": "Camara de Santa Fe", "Entidad": "Facaf", "PAIS": "Argentina" }, "geometry": { "type": "Point", "coordinates": [ -60.6360328, -32.9494253 ] } },
{ "type": "Feature", "properties": { "CodigoHomologado": "909018708", "Nombre": "AVILA", "Direccion": "Mendoza 3762", "Provincia": "Santa Fe", "Localidad": "Rosario", "CodigoPostal": "2000", "CUIT": "27146580659", "InstitucionPresentacion": "Colegio de Santa Fe 2da.Circ.", "Entidad": "Fefara", "PAIS": "Argentina" }, "geometry": { "type": "Point", "coordinates": [ -60.675786573, -32.944982565 ] } },
{ "type": "Feature", "properties": { "CodigoHomologado": "909205033", "Nombre": "PONCE", "Direccion": "Av. San Martin 2035", "Provincia": "Santa Fe", "Localidad": "Fray Luis Beltran", "CodigoPostal": "2156", "CUIT": "20166461252", "InstitucionPresentacion": "Colegio de Santa Fe 2da.Circ.", "Entidad": "Fefara", "PAIS": "Argentina" }, "geometry": { "type": "Point", "coordinates": [ -60.7281201, -32.7771483 ] } },
{ "type": "Feature", "properties": { "CodigoHomologado": "914000143", "Nombre": "ROLIRIA I", "Direccion": "Buenos Aires 513", "Provincia": "Entre Rios", "Localidad": "Parana", "CodigoPostal": "3100", "CUIT": "30551826127", "InstitucionPresentacion": "Colegio de Entre Rios", "Entidad": "COFA", "PAIS": "Argentina" }, "geometry": { "type": "Point", "coordinates": [ -60.528666157, -31.72429821 ] } },
{ "type": "Feature", "properties": { "CodigoHomologado": "909206772", "Nombre": "VIAMONTE", "Direccion": "Viamonte 906", "Provincia": "Santa Fe", "Localidad": "Rosario", "CodigoPostal": "2000", "CUIT": "27250078450", "InstitucionPresentacion": "Circulo de Rosario", "Entidad": "COFA", "PAIS": "Argentina" }, "geometry": { "type": "Point", "coordinates": [ -60.640357116, -32.965681827 ] } },
{ "type": "Feature", "properties": { "CodigoHomologado": "909013065", "Nombre": "CORIASCO", "Direccion": "Cafferata 1242", "Provincia": "Santa Fe", "Localidad": "Rosario", "CodigoPostal": "2000", "CUIT": "27032181800", "InstitucionPresentacion": "Circulo de Rosario", "Entidad": "COFA", "PAIS": "Argentina" }, "geometry": { "type": "Point", "coordinates": [ -60.672483516, -32.946218055 ] } },
{ "type": "Feature", "properties": { "CodigoHomologado": "909030179", "Nombre": "BIZZOTTO", "Direccion": "Colon 1301", "Provincia": "Santa Fe", "Localidad": "Rosario", "CodigoPostal": "2000", "CUIT": "27178120900", "InstitucionPresentacion": "Colegio de Santa Fe 2da.Circ.", "Entidad": "Fefara", "PAIS": "Argentina" }, "geometry": { "type": "Point", "coordinates": [ -60.627092, -32.9550913 ] } },
{ "type": "Feature", "properties": { "CodigoHomologado": "909207983", "Nombre": "ATLANTICA", "Direccion": "Maipu 1498", "Provincia": "Santa Fe", "Localidad": "Rosario", "CodigoPostal": "2000", "CUIT": "20256487854", "InstitucionPresentacion": "Colegio de Santa Fe 2da.Circ.", "Entidad": "Fefara", "PAIS": "Argentina" }, "geometry": { "type": "Point", "coordinates": [ -60.637514039, -32.955428869 ] } },
{ "type": "Feature", "properties": { "CodigoHomologado": "909014788", "Nombre": "TARICCO", "Direccion": "Avellaneda 1945", "Provincia": "Santa Fe", "Localidad": "Rosario", "CodigoPostal": "2000", "CUIT": "27118721468", "InstitucionPresentacion": "Colegio de Santa Fe 2da.Circ.", "Entidad": "Fefara", "PAIS": "Argentina" }, "geometry": { "type": "Point", "coordinates": [ -60.6823633, -32.9526329 ] } },
{ "type": "Feature", "properties": { "CodigoHomologado": "909200478", "Nombre": "PLACENTI", "Direccion": "San Juan 3501", "Provincia": "Santa Fe", "Localidad": "Rosario", "CodigoPostal": "2000", "CUIT": "20171606447", "InstitucionPresentacion": "Colegio de Santa Fe 2da.Circ.", "Entidad": "Fefara", "PAIS": "Argentina" }, "geometry": { "type": "Point", "coordinates": [ -60.6720747, -32.9443118 ] } },
{ "type": "Feature", "properties": { "CodigoHomologado": "903007557", "Nombre": "MUZZIO DE KALCZEWSKI", "Direccion": "Tucuman 1592", "Provincia": "Cordoba", "Localidad": "Monte Maiz", "CodigoPostal": "2659", "CUIT": "27164459166", "InstitucionPresentacion": "Colegio de Cordoba", "Entidad": "COFA", "PAIS": "Argentina" }, "geometry": { "type": "Point", "coordinates": [ -62.597831135, -33.204450824 ] } },
{ "type": "Feature", "properties": { "CodigoHomologado": "915203515", "Nombre": "SEN", "Direccion": "Salvador del Carril 1672", "Provincia": "Santa Fe", "Localidad": "Santa Fe", "CodigoPostal": "3000", "CUIT": "27253146449", "InstitucionPresentacion": "Colegio de Santa Fe 1ra.Circ.", "Entidad": "Fefara", "PAIS": "Argentina" }, "geometry": { "type": "Point", "coordinates": [ -60.6953363, -31.6188701 ] } },
{ "type": "Feature", "properties": { "CodigoHomologado": "909200369", "Nombre": "CORDOBA", "Direccion": "Cordoba 2394", "Provincia": "Santa Fe", "Localidad": "Rosario", "CodigoPostal": "2000", "CUIT": "27172344343", "InstitucionPresentacion": "Colegio de Santa Fe 2da.Circ.", "Entidad": "Fefara", "PAIS": "Argentina" }, "geometry": { "type": "Point", "coordinates": [ -60.655765414, -32.943240531 ] } },
{ "type": "Feature", "properties": { "CodigoHomologado": "909200372", "Nombre": "CARUSO", "Direccion": "Pellegrini 5939", "Provincia": "Santa Fe", "Localidad": "Rosario", "CodigoPostal": "2000", "CUIT": "27169854918", "InstitucionPresentacion": "Circulo de Rosario", "Entidad": "COFA", "PAIS": "Argentina" }, "geometry": { "type": "Point", "coordinates": [ -60.703463345, -32.948494471 ] } },
{ "type": "Feature", "properties": { "CodigoHomologado": "909200804", "Nombre": "PANIZZI", "Direccion": "Av.San Martin 816", "Provincia": "Santa Fe", "Localidad": "Totoras", "CodigoPostal": "2144", "CUIT": "27122977612", "InstitucionPresentacion": "Colegio de Santa Fe 2da.Circ.", "Entidad": "Fefara", "PAIS": "Argentina" }, "geometry": { "type": "Point", "coordinates": [ -61.1748986, -32.5884565 ] } },
{ "type": "Feature", "properties": { "CodigoHomologado": "909010931", "Nombre": "DEL AGUILA", "Direccion": "Rioja 883", "Provincia": "Santa Fe", "Localidad": "Rosario", "CodigoPostal": "2000", "CUIT": "23140816094", "InstitucionPresentacion": "Colegio de Santa Fe 2da.Circ.", "Entidad": "Fefara", "PAIS": "Argentina" }, "geometry": { "type": "Point", "coordinates": [ -60.635284251, -32.948387229 ] } },
{ "type": "Feature", "properties": { "CodigoHomologado": "909026143", "Nombre": "ZAMPATTI", "Direccion": "Rivadavia 1019", "Provincia": "Santa Fe", "Localidad": "San Jose de la Esquina", "CodigoPostal": "2185", "CUIT": "20166484155", "InstitucionPresentacion": "Colegio de Santa Fe 2da.Circ.", "Entidad": "Fefara", "PAIS": "Argentina" }, "geometry": { "type": "Point", "coordinates": [ -61.7031263, -33.1093267 ] } },
{ "type": "Feature", "properties": { "CodigoHomologado": "909025674", "Nombre": "MUGICA", "Direccion": "Las Heras 73", "Provincia": "Santa Fe", "Localidad": "Fray Luis Beltran", "CodigoPostal": "2156", "CUIT": "27182801203", "InstitucionPresentacion": "Colegio de Santa Fe 2da.Circ.", "Entidad": "Fefara", "PAIS": "Argentina" }, "geometry": { "type": "Point", "coordinates": [ -60.7246768, -32.8001656 ] } },
{ "type": "Feature", "properties": { "CodigoHomologado": "909020647", "Nombre": "LOPEZ", "Direccion": "San Martin 1302", "Provincia": "Santa Fe", "Localidad": "San Lorenzo", "CodigoPostal": "2200", "CUIT": "27057516009", "InstitucionPresentacion": "Colegio de Santa Fe 2da.Circ.", "Entidad": "Fefara", "PAIS": "Argentina" }, "geometry": { "type": "Point", "coordinates": [ -60.7315529, -32.7585771 ] } },
{ "type": "Feature", "properties": { "CodigoHomologado": "909200709", "Nombre": "RUCCI", "Direccion": "9 de Julio 177", "Provincia": "Santa Fe", "Localidad": "Capitan Bermudez", "CodigoPostal": "2154", "CUIT": "20215789528", "InstitucionPresentacion": "Colegio de Santa Fe 2da.Circ.", "Entidad": "Fefara", "PAIS": "Argentina" }, "geometry": { "type": "Point", "coordinates": [ -60.7196019, -32.8205696 ] } },
{ "type": "Feature", "properties": { "CodigoHomologado": "909025411", "Nombre": "MARCELO GARCIA", "Direccion": "Lavalle 1301", "Provincia": "Santa Fe", "Localidad": "Cañada de Gomez", "CodigoPostal": "2500", "CUIT": "20171023859", "InstitucionPresentacion": "Colegio de Santa Fe 2da.Circ.", "Entidad": "Fefara", "PAIS": "Argentina" }, "geometry": { "type": "Point", "coordinates": [ -61.4009262, -32.8193787 ] } },
{ "type": "Feature", "properties": { "CodigoHomologado": "909021291", "Nombre": "MAINO", "Direccion": "14 de Febrero 812", "Provincia": "Santa Fe", "Localidad": "Villa Constitucion", "CodigoPostal": "2919", "CUIT": "20065129079", "InstitucionPresentacion": "Colegio de Santa Fe 2da.Circ.", "Entidad": "Fefara", "PAIS": "Argentina" }, "geometry": { "type": "Point", "coordinates": [ -60.336939653, -33.226932669 ] } },
{ "type": "Feature", "properties": { "CodigoHomologado": "909205483", "Nombre": "JUAN", "Direccion": "Av. San Martin 238", "Provincia": "Santa Fe", "Localidad": "Bombal", "CodigoPostal": "2179", "CUIT": "27253428231", "InstitucionPresentacion": "Colegio de Santa Fe 2da.Circ.", "Entidad": "Fefara", "PAIS": "Argentina" }, "geometry": { "type": "Point", "coordinates": [ -61.3197374, -33.4560019 ] } },
{ "type": "Feature", "properties": { "CodigoHomologado": "909203821", "Nombre": "LA UNIVERSIDAD", "Direccion": "Salta 2801", "Provincia": "Santa Fe", "Localidad": "Rosario", "CodigoPostal": "2000", "CUIT": "27222057855", "InstitucionPresentacion": "Colegio de Santa Fe 2da.Circ.", "Entidad": "Fefara", "PAIS": "Argentina" }, "geometry": { "type": "Point", "coordinates": [ -60.6599365, -32.9353648 ] } },
{ "type": "Feature", "properties": { "CodigoHomologado": "915001238", "Nombre": "VENICA", "Direccion": "Belgrano 599", "Provincia": "Santa Fe", "Localidad": "Galvez", "CodigoPostal": "2252", "CUIT": "27117336463", "InstitucionPresentacion": "Colegio de Santa Fe 1ra.Circ.", "Entidad": "Fefara", "PAIS": "Argentina" }, "geometry": { "type": "Point", "coordinates": [ -61.2194519, -32.0315603 ] } },
{ "type": "Feature", "properties": { "CodigoHomologado": "909024121", "Nombre": "BUSILACCHI", "Direccion": "Moreno 1639", "Provincia": "Santa Fe", "Localidad": "Chabas", "CodigoPostal": "2173", "CUIT": "27173730212", "InstitucionPresentacion": "Colegio de Santa Fe 2da.Circ.", "Entidad": "Fefara", "PAIS": "Argentina" }, "geometry": { "type": "Point", "coordinates": [ -61.3613059, -33.24376 ] } },
{ "type": "Feature", "properties": { "CodigoHomologado": "909012551", "Nombre": "MOLLARDO", "Direccion": "Olive 1982", "Provincia": "Santa Fe", "Localidad": "Rosario", "CodigoPostal": "2000", "CUIT": "27047716905", "InstitucionPresentacion": "Colegio de Santa Fe 2da.Circ.", "Entidad": "Fefara", "PAIS": "Argentina" }, "geometry": { "type": "Point", "coordinates": [ -60.6799766, -32.9128995 ] } },
{ "type": "Feature", "properties": { "CodigoHomologado": "909204844", "Nombre": "BOLIVAR", "Direccion": "Bolivar 1318", "Provincia": "Santa Fe", "Localidad": "Villa Constitucion", "CodigoPostal": "2919", "CUIT": "23041046414", "InstitucionPresentacion": "Colegio de Santa Fe 2da.Circ.", "Entidad": "Fefara", "PAIS": "Argentina" }, "geometry": { "type": "Point", "coordinates": [ -60.333171341, -33.231748429 ] } },
{ "type": "Feature", "properties": { "CodigoHomologado": "909021461", "Nombre": "MATTIA", "Direccion": "Saavedra 669", "Provincia": "Santa Fe", "Localidad": "Villa Constitucion", "CodigoPostal": "2919", "CUIT": "27130371375", "InstitucionPresentacion": "Colegio de Santa Fe 2da.Circ.", "Entidad": "Fefara", "PAIS": "Argentina" }, "geometry": { "type": "Point", "coordinates": [ -60.387336016, -33.266505759 ] } },
{ "type": "Feature", "properties": { "CodigoHomologado": "931200181", "Nombre": "VASCHETTI", "Direccion": "9 de Julio 186", "Provincia": "Buenos Aires", "Localidad": "Pergamino", "CodigoPostal": "2700", "CUIT": "20217740895", "InstitucionPresentacion": "Colegio de Pergamino", "Entidad": "COFA", "PAIS": "Argentina" }, "geometry": { "type": "Point", "coordinates": [ -60.5687424, -33.9085045 ] } },
{ "type": "Feature", "properties": { "CodigoHomologado": "909200679", "Nombre": "YACOMOZZI", "Direccion": "Saavedra 370", "Provincia": "Santa Fe", "Localidad": "Empalme Villa Constitucion", "CodigoPostal": "2918", "CUIT": "27207240082", "InstitucionPresentacion": "Colegio de Santa Fe 2da.Circ.", "Entidad": "Fefara", "PAIS": "Argentina" }, "geometry": { "type": "Point", "coordinates": [ -60.385295629, -33.264409057 ] } },
{ "type": "Feature", "properties": { "CodigoHomologado": "909016223", "Nombre": "JELUSICH", "Direccion": "Buenos Aires 1612", "Provincia": "Santa Fe", "Localidad": "Rosario", "CodigoPostal": "2000", "CUIT": "27122566280", "InstitucionPresentacion": "Colegio de Santa Fe 2da.Circ.", "Entidad": "Fefara", "PAIS": "Argentina" }, "geometry": { "type": "Point", "coordinates": [ -60.635228631, -32.95725919 ] } },
{ "type": "Feature", "properties": { "CodigoHomologado": "909200508", "Nombre": "BUSALACCHI", "Direccion": "Lamadrid 1977", "Provincia": "Santa Fe", "Localidad": "Rosario", "CodigoPostal": "2000", "CUIT": "20169115517", "InstitucionPresentacion": "Circulo de Rosario", "Entidad": "COFA", "PAIS": "Argentina" }, "geometry": { "type": "Point", "coordinates": [ -60.628793, -32.9965017 ] } },
{ "type": "Feature", "properties": { "CodigoHomologado": "913000584", "Nombre": "DEL PUEBLO", "Direccion": "25 de Mayo 490", "Provincia": "Chaco", "Localidad": "Villa Angela", "CodigoPostal": "3540", "CUIT": "20065194423", "InstitucionPresentacion": "Colegio de Chaco", "Entidad": "COFA", "PAIS": "Argentina" }, "geometry": { "type": "Point", "coordinates": [ -60.711447, -27.563773 ] } },
{ "type": "Feature", "properties": { "CodigoHomologado": "909015846", "Nombre": "GAMULIN", "Direccion": "Rodriguez 714", "Provincia": "Santa Fe", "Localidad": "Rosario", "CodigoPostal": "2000", "CUIT": "23136006959", "InstitucionPresentacion": "Circulo de Rosario", "Entidad": "COFA", "PAIS": "Argentina" }, "geometry": { "type": "Point", "coordinates": [ -60.6640323, -32.9639163 ] } },
{ "type": "Feature", "properties": { "CodigoHomologado": "909019753", "Nombre": "VITANTONIO", "Direccion": "Mitre 984", "Provincia": "Santa Fe", "Localidad": "Rosario", "CodigoPostal": "2000", "CUIT": "20114487555", "InstitucionPresentacion": "Circulo de Rosario", "Entidad": "COFA", "PAIS": "Argentina" }, "geometry": { "type": "Point", "coordinates": [ -60.719367942, -32.860736969 ] } },
{ "type": "Feature", "properties": { "CodigoHomologado": "909026126", "Nombre": "DALMASSO", "Direccion": "Santa Fe 328", "Provincia": "Santa Fe", "Localidad": "Chañar Ladeado", "CodigoPostal": "2643", "CUIT": "27203910571", "InstitucionPresentacion": "Colegio de Santa Fe 2da.Circ.", "Entidad": "Fefara", "PAIS": "Argentina" }, "geometry": { "type": "Point", "coordinates": [ -62.04026112, -33.322143414 ] } },
{ "type": "Feature", "properties": { "CodigoHomologado": "909012609", "Nombre": "MORONI", "Direccion": "Av. Pellegrini 1571", "Provincia": "Santa Fe", "Localidad": "Rosario", "CodigoPostal": "2000", "CUIT": "27028195325", "InstitucionPresentacion": "Colegio de Santa Fe 2da.Circ.", "Entidad": "Fefara", "PAIS": "Argentina" }, "geometry": { "type": "Point", "coordinates": [ -60.6152615, -33.0586454 ] } },
{ "type": "Feature", "properties": { "CodigoHomologado": "909010621", "Nombre": "CARATTOLI", "Direccion": "Asurmendi 501", "Provincia": "Santa Fe", "Localidad": "Acebal", "CodigoPostal": "2109", "CUIT": "27048501996", "InstitucionPresentacion": "Colegio de Santa Fe 2da.Circ.", "Entidad": "Fefara", "PAIS": "Argentina" }, "geometry": { "type": "Point", "coordinates": [ -60.8342382, -33.235717 ] } },
{ "type": "Feature", "properties": { "CodigoHomologado": "909018695", "Nombre": "ALESSO", "Direccion": "Sarmiento 1296", "Provincia": "Santa Fe", "Localidad": "Rosario", "CodigoPostal": "2000", "CUIT": "27179922733", "InstitucionPresentacion": "Colegio de Santa Fe 2da.Circ.", "Entidad": "Fefara", "PAIS": "Argentina" }, "geometry": { "type": "Point", "coordinates": [ -60.639761741, -32.9526153 ] } },
{ "type": "Feature", "properties": { "CodigoHomologado": "909207765", "Nombre": "DEL PARQUE", "Direccion": "Corrientes 1801", "Provincia": "Santa Fe", "Localidad": "Rosario", "CodigoPostal": "2000", "CUIT": "30711113394", "InstitucionPresentacion": "Colegio de Santa Fe 2da.Circ.", "Entidad": "Fefara", "PAIS": "Argentina" }, "geometry": { "type": "Point", "coordinates": [ -60.6453256, -32.9578668 ] } },
{ "type": "Feature", "properties": { "CodigoHomologado": "909022284", "Nombre": "ZACCO", "Direccion": "Av. San Roque 35", "Provincia": "Santa Fe", "Localidad": "Capitan Bermudez", "CodigoPostal": "2154", "CUIT": "27112953928", "InstitucionPresentacion": "Colegio de Santa Fe 2da.Circ.", "Entidad": "Fefara", "PAIS": "Argentina" }, "geometry": { "type": "Point", "coordinates": [ -60.7183491, -32.8165457 ] } },
{ "type": "Feature", "properties": { "CodigoHomologado": "909012115", "Nombre": "TORCHIO", "Direccion": "Castro Barros 4958", "Provincia": "Santa Fe", "Localidad": "Rosario", "CodigoPostal": "2000", "CUIT": "23125270204", "InstitucionPresentacion": "Colegio de Santa Fe 2da.Circ.", "Entidad": "Fefara", "PAIS": "Argentina" }, "geometry": { "type": "Point", "coordinates": [ -60.629893476, -32.99488869 ] } },
{ "type": "Feature", "properties": { "CodigoHomologado": "909205684", "Nombre": "STRIEBECK", "Direccion": "Cordoba 2730", "Provincia": "Santa Fe", "Localidad": "Rosario", "CodigoPostal": "2000", "CUIT": "20225413771", "InstitucionPresentacion": "Circulo de Rosario", "Entidad": "COFA", "PAIS": "Argentina" }, "geometry": { "type": "Point", "coordinates": [ -60.660567514, -32.942386457 ] } },
{ "type": "Feature", "properties": { "CodigoHomologado": "909200355", "Nombre": "MENONI", "Direccion": "Ayacucho 1392", "Provincia": "Santa Fe", "Localidad": "Rosario", "CodigoPostal": "2000", "CUIT": "27222093835", "InstitucionPresentacion": "Colegio de Santa Fe 2da.Circ.", "Entidad": "Fefara", "PAIS": "Argentina" }, "geometry": { "type": "Point", "coordinates": [ -60.628805108, -32.955701447 ] } },
{ "type": "Feature", "properties": { "CodigoHomologado": "909019426", "Nombre": "SCARAVAGLIONE", "Direccion": "Corrientes 962", "Provincia": "Santa Fe", "Localidad": "Rosario", "CodigoPostal": "2000", "CUIT": "27127201256", "InstitucionPresentacion": "Circulo de Rosario", "Entidad": "COFA", "PAIS": "Argentina" }, "geometry": { "type": "Point", "coordinates": [ -60.642868096, -32.947709153 ] } },
{ "type": "Feature", "properties": { "CodigoHomologado": "909019348", "Nombre": "CARDINI", "Direccion": "Ovidio Lagos 421", "Provincia": "Santa Fe", "Localidad": "Rosario", "CodigoPostal": "2000", "CUIT": "27162516332", "InstitucionPresentacion": "Colegio de Santa Fe 2da.Circ.", "Entidad": "Fefara", "PAIS": "Argentina" }, "geometry": { "type": "Point", "coordinates": [ -60.660288849, -32.937955931 ] } },
{ "type": "Feature", "properties": { "CodigoHomologado": "909205929", "Nombre": "FENOGLIO", "Direccion": "Zeballos 1901", "Provincia": "Santa Fe", "Localidad": "Rosario", "CodigoPostal": "2000", "CUIT": "27202591790", "InstitucionPresentacion": "Colegio de Santa Fe 2da.Circ.", "Entidad": "Fefara", "PAIS": "Argentina" }, "geometry": { "type": "Point", "coordinates": [ -60.6514758, -32.9530346 ] } },
{ "type": "Feature", "properties": { "CodigoHomologado": "909011244", "Nombre": "ROSARIO", "Direccion": "San Lorenzo 1315", "Provincia": "Santa Fe", "Localidad": "Rosario", "CodigoPostal": "2000", "CUIT": "27121109668", "InstitucionPresentacion": "Colegio de Santa Fe 2da.Circ.", "Entidad": "Fefara", "PAIS": "Argentina" }, "geometry": { "type": "Point", "coordinates": [ -60.640672471, -32.943642229 ] } },
{ "type": "Feature", "properties": { "CodigoHomologado": "909012718", "Nombre": "ORIOL SUSANA", "Direccion": "Junin 498", "Provincia": "Santa Fe", "Localidad": "Rosario", "CodigoPostal": "2000", "CUIT": "27118711195", "InstitucionPresentacion": "Colegio de Santa Fe 2da.Circ.", "Entidad": "Fefara", "PAIS": "Argentina" }, "geometry": { "type": "Point", "coordinates": [ -60.7196995, -32.8548002 ] } },
{ "type": "Feature", "properties": { "CodigoHomologado": "909202344", "Nombre": "ITALIA", "Direccion": "Catamarca 1803", "Provincia": "Santa Fe", "Localidad": "Rosario", "CodigoPostal": "2000", "CUIT": "27170521434", "InstitucionPresentacion": "Camara de Santa Fe", "Entidad": "Facaf", "PAIS": "Argentina" }, "geometry": { "type": "Point", "coordinates": [ -60.646620418, -32.938904622 ] } },
{ "type": "Feature", "properties": { "CodigoHomologado": "909200900", "Nombre": "PEROTTI", "Direccion": "Independencia 613", "Provincia": "Santa Fe", "Localidad": "Arteaga", "CodigoPostal": "2187", "CUIT": "27042238967", "InstitucionPresentacion": "Colegio de Santa Fe 2da.Circ.", "Entidad": "Fefara", "PAIS": "Argentina" }, "geometry": { "type": "Point", "coordinates": [ -61.7917353, -33.0917265 ] } },
{ "type": "Feature", "properties": { "CodigoHomologado": "915203437", "Nombre": "GARETTO", "Direccion": "Sa Pereira 232", "Provincia": "Santa Fe", "Localidad": "Sa Pereyra", "CodigoPostal": "2318", "CUIT": "27282151427", "InstitucionPresentacion": "Colegio de Santa Fe 1ra.Circ.", "Entidad": "Fefara", "PAIS": "Argentina" }, "geometry": { "type": "Point", "coordinates": [ -61.3767402, -31.5709672 ] } },
{ "type": "Feature", "properties": { "CodigoHomologado": "909205762", "Nombre": "DEL PUERTO", "Direccion": "San Martin 168", "Provincia": "Santa Fe", "Localidad": "Puerto General San Martin", "CodigoPostal": "2202", "CUIT": "27185652071", "InstitucionPresentacion": "Colegio de Santa Fe 2da.Circ.", "Entidad": "Fefara", "PAIS": "Argentina" }, "geometry": { "type": "Point", "coordinates": [ -60.7527208, -32.7114235 ] } },
{ "type": "Feature", "properties": { "CodigoHomologado": "909019999", "Nombre": "MARINELLI", "Direccion": "Ayacucho 2095", "Provincia": "Santa Fe", "Localidad": "Rosario", "CodigoPostal": "2000", "CUIT": "27144447692", "InstitucionPresentacion": "Camara de Santa Fe", "Entidad": "Facaf", "PAIS": "Argentina" }, "geometry": { "type": "Point", "coordinates": [ -60.630679884, -32.963710165 ] } },
{ "type": "Feature", "properties": { "CodigoHomologado": "909011820", "Nombre": "ITALIANA", "Direccion": "San Martin 1902", "Provincia": "Santa Fe", "Localidad": "Rosario", "CodigoPostal": "2000", "CUIT": "20076347280", "InstitucionPresentacion": "Colegio de Santa Fe 2da.Circ.", "Entidad": "Fefara", "PAIS": "Argentina" }, "geometry": { "type": "Point", "coordinates": [ -60.6671043, -33.1766885 ] } },
{ "type": "Feature", "properties": { "CodigoHomologado": "909017388", "Nombre": "RANKIN", "Direccion": "Urquiza 5835", "Provincia": "Santa Fe", "Localidad": "Rosario", "CodigoPostal": "2000", "CUIT": "27060317092", "InstitucionPresentacion": "Circulo de Rosario", "Entidad": "COFA", "PAIS": "Argentina" }, "geometry": { "type": "Point", "coordinates": [ -60.6373482, -32.9430259 ] } },
{ "type": "Feature", "properties": { "CodigoHomologado": "909200137", "Nombre": "GOMEZ VALLE", "Direccion": "Baigorria 2350", "Provincia": "Santa Fe", "Localidad": "Rosario", "CodigoPostal": "2000", "CUIT": "20178195493", "InstitucionPresentacion": "Circulo de Rosario", "Entidad": "COFA", "PAIS": "Argentina" }, "geometry": { "type": "Point", "coordinates": [ -60.7194196, -32.8936865 ] } },
{ "type": "Feature", "properties": { "CodigoHomologado": "909023761", "Nombre": "MARONI", "Direccion": "Buenos Aires 3335", "Provincia": "Santa Fe", "Localidad": "Casilda", "CodigoPostal": "2170", "CUIT": "23136950584", "InstitucionPresentacion": "Colegio de Santa Fe 2da.Circ.", "Entidad": "Fefara", "PAIS": "Argentina" }, "geometry": { "type": "Point", "coordinates": [ -61.178781041, -33.051373845 ] } },
{ "type": "Feature", "properties": { "CodigoHomologado": "909011878", "Nombre": "JUAN", "Direccion": "Junin 5648", "Provincia": "Santa Fe", "Localidad": "Rosario", "CodigoPostal": "2000", "CUIT": "27055882415", "InstitucionPresentacion": "Circulo de Rosario", "Entidad": "COFA", "PAIS": "Argentina" }, "geometry": { "type": "Point", "coordinates": [ -60.7196995, -32.8548002 ] } },
{ "type": "Feature", "properties": { "CodigoHomologado": "909202886", "Nombre": "ZAETA", "Direccion": "Mendoza 847", "Provincia": "Santa Fe", "Localidad": "Rosario", "CodigoPostal": "2000", "CUIT": "27162672784", "InstitucionPresentacion": "Colegio de Santa Fe 2da.Circ.", "Entidad": "Fefara", "PAIS": "Argentina" }, "geometry": { "type": "Point", "coordinates": [ -60.635912051, -32.952163739 ] } },
{ "type": "Feature", "properties": { "CodigoHomologado": "909014556", "Nombre": "SOLARI", "Direccion": "San Martin 5602", "Provincia": "Santa Fe", "Localidad": "Rosario", "CodigoPostal": "2000", "CUIT": "27035462924", "InstitucionPresentacion": "Circulo de Rosario", "Entidad": "COFA", "PAIS": "Argentina" }, "geometry": { "type": "Point", "coordinates": [ -60.5019727, -33.164072 ] } },
{ "type": "Feature", "properties": { "CodigoHomologado": "909012630", "Nombre": "NADZIEJ", "Direccion": "Velez Sarsfield 369", "Provincia": "Santa Fe", "Localidad": "Rosario", "CodigoPostal": "2000", "CUIT": "27044347542", "InstitucionPresentacion": "Circulo de Rosario", "Entidad": "COFA", "PAIS": "Argentina" }, "geometry": { "type": "Point", "coordinates": [ -60.791261149, -32.910297751 ] } },
{ "type": "Feature", "properties": { "CodigoHomologado": "909015117", "Nombre": "MARTA PIATTI", "Direccion": "San Nicolas 485", "Provincia": "Santa Fe", "Localidad": "Rosario", "CodigoPostal": "2000", "CUIT": "27132559851", "InstitucionPresentacion": "Circulo de Rosario", "Entidad": "COFA", "PAIS": "Argentina" }, "geometry": { "type": "Point", "coordinates": [ -60.6713386, -32.936623629 ] } },
{ "type": "Feature", "properties": { "CodigoHomologado": "909207830", "Nombre": "BABINI", "Direccion": "Mendoza 7735", "Provincia": "Santa Fe", "Localidad": "Rosario", "CodigoPostal": "2000", "CUIT": "30711053448", "InstitucionPresentacion": "Colegio de Santa Fe 2da.Circ.", "Entidad": "Fefara", "PAIS": "Argentina" }, "geometry": { "type": "Point", "coordinates": [ -60.727776308, -32.940787096 ] } },
{ "type": "Feature", "properties": { "CodigoHomologado": "909205589", "Nombre": "PERLO", "Direccion": "Eva Peron 586", "Provincia": "Santa Fe", "Localidad": "Capitan Bermudez", "CodigoPostal": "2154", "CUIT": "27148031121", "InstitucionPresentacion": "Colegio de Santa Fe 2da.Circ.", "Entidad": "Fefara", "PAIS": "Argentina" }, "geometry": { "type": "Point", "coordinates": [ -60.7141506, -32.8312389 ] } },
{ "type": "Feature", "properties": { "CodigoHomologado": "909010190", "Nombre": "ARGENTA", "Direccion": "San Martin 4515", "Provincia": "Santa Fe", "Localidad": "Rosario", "CodigoPostal": "2000", "CUIT": "20028314788", "InstitucionPresentacion": "Circulo de Rosario", "Entidad": "COFA", "PAIS": "Argentina" }, "geometry": { "type": "Point", "coordinates": [ -60.5019727, -33.164072 ] } },
{ "type": "Feature", "properties": { "CodigoHomologado": "909024009", "Nombre": "GAIDO", "Direccion": "Dante Alighieri 1701", "Provincia": "Santa Fe", "Localidad": "Casilda", "CodigoPostal": "2170", "CUIT": "27115235740", "InstitucionPresentacion": "Colegio de Santa Fe 2da.Circ.", "Entidad": "Fefara", "PAIS": "Argentina" }, "geometry": { "type": "Point", "coordinates": [ -61.1603713, -33.0439651 ] } },
{ "type": "Feature", "properties": { "CodigoHomologado": "909030710", "Nombre": "SOLARI SERGIO", "Direccion": "San Martin 3701", "Provincia": "Santa Fe", "Localidad": "Rosario", "CodigoPostal": "2000", "CUIT": "20210112163", "InstitucionPresentacion": "Circulo de Rosario", "Entidad": "COFA", "PAIS": "Argentina" }, "geometry": { "type": "Point", "coordinates": [ -60.5019727, -33.164072 ] } },
{ "type": "Feature", "properties": { "CodigoHomologado": "909016782", "Nombre": "LELLI", "Direccion": "Salvat 1562", "Provincia": "Santa Fe", "Localidad": "Rosario", "CodigoPostal": "2000", "CUIT": "27104963698", "InstitucionPresentacion": "Colegio de Santa Fe 2da.Circ.", "Entidad": "Fefara", "PAIS": "Argentina" }, "geometry": { "type": "Point", "coordinates": [ -60.7350908, -32.88388 ] } },
{ "type": "Feature", "properties": { "CodigoHomologado": "909018602", "Nombre": "DERICO", "Direccion": "Moreno 571", "Provincia": "Santa Fe", "Localidad": "Coronel Bogado", "CodigoPostal": "2103", "CUIT": "20179580188", "InstitucionPresentacion": "Circulo de Rosario", "Entidad": "COFA", "PAIS": "Argentina" }, "geometry": { "type": "Point", "coordinates": [ -60.6031426, -33.3164938 ] } },
{ "type": "Feature", "properties": { "CodigoHomologado": "909200464", "Nombre": "SOLARI CARLOS", "Direccion": "Arijon 1645", "Provincia": "Santa Fe", "Localidad": "Rosario", "CodigoPostal": "2000", "CUIT": "20160644207", "InstitucionPresentacion": "Circulo de Rosario", "Entidad": "COFA", "PAIS": "Argentina" }, "geometry": { "type": "Point", "coordinates": [ -60.6748263, -33.003826 ] } },
{ "type": "Feature", "properties": { "CodigoHomologado": "915001967", "Nombre": "POET", "Direccion": "San Lorenzo 761", "Provincia": "Santa Fe", "Localidad": "El Trebol", "CodigoPostal": "2535", "CUIT": "27126501930", "InstitucionPresentacion": "Colegio de Santa Fe 1ra.Circ.", "Entidad": "Fefara", "PAIS": "Argentina" }, "geometry": { "type": "Point", "coordinates": [ -61.704035892, -32.202821355 ] } },
{ "type": "Feature", "properties": { "CodigoHomologado": "909019661", "Nombre": "RIOS", "Direccion": "Dorrego 1554", "Provincia": "Santa Fe", "Localidad": "San Lorenzo", "CodigoPostal": "2200", "CUIT": "20139236875", "InstitucionPresentacion": "Camara de Santa Fe", "Entidad": "Facaf", "PAIS": "Argentina" }, "geometry": { "type": "Point", "coordinates": [ -61.0330453, -33.0182593 ] } },
{ "type": "Feature", "properties": { "CodigoHomologado": "909021504", "Nombre": "ORSO", "Direccion": "Santa Fe 1299", "Provincia": "Santa Fe", "Localidad": "Firmat", "CodigoPostal": "2630", "CUIT": "20125793968", "InstitucionPresentacion": "Colegio de Santa Fe 2da.Circ.", "Entidad": "Fefara", "PAIS": "Argentina" }, "geometry": { "type": "Point", "coordinates": [ -61.4879218, -33.458603 ] } },
{ "type": "Feature", "properties": { "CodigoHomologado": "909207921", "Nombre": "AUGUSTO", "Direccion": "Buenos Aires 1830", "Provincia": "Santa Fe", "Localidad": "Casilda", "CodigoPostal": "2170", "CUIT": "20249429156", "InstitucionPresentacion": "Colegio de Santa Fe 2da.Circ.", "Entidad": "Fefara", "PAIS": "Argentina" }, "geometry": { "type": "Point", "coordinates": [ -61.163207143, -33.042587214 ] } },
{ "type": "Feature", "properties": { "CodigoHomologado": "909206599", "Nombre": "DON GUILLERMO", "Direccion": "25 de Mayo 1026", "Provincia": "Santa Fe", "Localidad": "Correa", "CodigoPostal": "2506", "CUIT": "27235026045", "InstitucionPresentacion": "Colegio de Santa Fe 2da.Circ.", "Entidad": "Fefara", "PAIS": "Argentina" }, "geometry": { "type": "Point", "coordinates": [ -61.2612265, -32.8471941 ] } },
{ "type": "Feature", "properties": { "CodigoHomologado": "909207656", "Nombre": "MAZZONE", "Direccion": "25 de Mayo 1150", "Provincia": "Santa Fe", "Localidad": "Correa", "CodigoPostal": "2506", "CUIT": "27234766010", "InstitucionPresentacion": "Colegio de Santa Fe 2da.Circ.", "Entidad": "Fefara", "PAIS": "Argentina" }, "geometry": { "type": "Point", "coordinates": [ -61.2612265, -32.8471941 ] } },
{ "type": "Feature", "properties": { "CodigoHomologado": "909207595", "Nombre": "SANTECCHIA", "Direccion": "Sarmiento 1148", "Provincia": "Santa Fe", "Localidad": "Correa", "CodigoPostal": "2506", "CUIT": "27219291693", "InstitucionPresentacion": "Colegio de Santa Fe 2da.Circ.", "Entidad": "Fefara", "PAIS": "Argentina" }, "geometry": { "type": "Point", "coordinates": [ -61.2544951, -32.8524862 ] } },
{ "type": "Feature", "properties": { "CodigoHomologado": "909024554", "Nombre": "VIOLA", "Direccion": "Rivadavia 1266", "Provincia": "Santa Fe", "Localidad": "Correa", "CodigoPostal": "2506", "CUIT": "27174319532", "InstitucionPresentacion": "Colegio de Santa Fe 2da.Circ.", "Entidad": "Fefara", "PAIS": "Argentina" }, "geometry": { "type": "Point", "coordinates": [ -61.2555898, -32.8506174 ] } },
{ "type": "Feature", "properties": { "CodigoHomologado": "909206030", "Nombre": "TERZAGHI", "Direccion": "San Martin 3071", "Provincia": "Santa Fe", "Localidad": "San Lorenzo", "CodigoPostal": "2200", "CUIT": "27239618591", "InstitucionPresentacion": "Colegio de Santa Fe 2da.Circ.", "Entidad": "Fefara", "PAIS": "Argentina" }, "geometry": { "type": "Point", "coordinates": [ -60.7315529, -32.7585771 ] } },
{ "type": "Feature", "properties": { "CodigoHomologado": "909015850", "Nombre": "ZANNI", "Direccion": "Amenabar 5359", "Provincia": "Santa Fe", "Localidad": "Rosario", "CodigoPostal": "2000", "CUIT": "27135027141", "InstitucionPresentacion": "Circulo de Rosario", "Entidad": "COFA", "PAIS": "Argentina" }, "geometry": { "type": "Point", "coordinates": [ -60.6231972, -33.0365062 ] } },
{ "type": "Feature", "properties": { "CodigoHomologado": "909023867", "Nombre": "URQUIZA", "Direccion": "San Martin 212", "Provincia": "Santa Fe", "Localidad": "Cañada de Gomez", "CodigoPostal": "2500", "CUIT": "27165652350", "InstitucionPresentacion": "Colegio de Santa Fe 2da.Circ.", "Entidad": "Fefara", "PAIS": "Argentina" }, "geometry": { "type": "Point", "coordinates": [ -61.4031088, -32.8265857 ] } },
{ "type": "Feature", "properties": { "CodigoHomologado": "909023015", "Nombre": "ASOCIACION MUTUAL FERROVIARIA", "Direccion": "Lavalle 472", "Provincia": "Santa Fe", "Localidad": "Cañada de Gomez", "CodigoPostal": "2500", "CUIT": "30522696664", "InstitucionPresentacion": "Asociacion Mutuales y Sindicales R.A.", "Entidad": "Sindical", "PAIS": "Argentina" }, "geometry": { "type": "Point", "coordinates": [ -61.3810984, -32.8227388 ] } },
{ "type": "Feature", "properties": { "CodigoHomologado": "909022702", "Nombre": "TUMINI", "Direccion": "Pellegrini 738", "Provincia": "Santa Fe", "Localidad": "Roldan", "CodigoPostal": "2134", "CUIT": "27140070942", "InstitucionPresentacion": "Colegio de Santa Fe 2da.Circ.", "Entidad": "Fefara", "PAIS": "Argentina" }, "geometry": { "type": "Point", "coordinates": [ -60.9076386, -32.8987068 ] } },
{ "type": "Feature", "properties": { "CodigoHomologado": "909024244", "Nombre": "BRUNO", "Direccion": "Rivadavia 601", "Provincia": "Santa Fe", "Localidad": "Las Rosas", "CodigoPostal": "2520", "CUIT": "27166457241", "InstitucionPresentacion": "Colegio de Santa Fe 2da.Circ.", "Entidad": "Fefara", "PAIS": "Argentina" }, "geometry": { "type": "Point", "coordinates": [ -60.9178029, -31.9726268 ] } },
{ "type": "Feature", "properties": { "CodigoHomologado": "909023683", "Nombre": "PONZIO", "Direccion": "Tucuman 101", "Provincia": "Santa Fe", "Localidad": "Las Rosas", "CodigoPostal": "2520", "CUIT": "27134894534", "InstitucionPresentacion": "Colegio de Santa Fe 2da.Circ.", "Entidad": "Fefara", "PAIS": "Argentina" }, "geometry": { "type": "Point", "coordinates": [ -61.5809326, -32.4783533 ] } },
{ "type": "Feature", "properties": { "CodigoHomologado": "909023063", "Nombre": "PIRES", "Direccion": "Italia 499", "Provincia": "Santa Fe", "Localidad": "Las Rosas", "CodigoPostal": "2520", "CUIT": "20133456296", "InstitucionPresentacion": "Colegio de Santa Fe 2da.Circ.", "Entidad": "Fefara", "PAIS": "Argentina" }, "geometry": { "type": "Point", "coordinates": [ -60.9186654, -31.9785284 ] } },
{ "type": "Feature", "properties": { "CodigoHomologado": "909206790", "Nombre": "SANTA ROSA", "Direccion": "Italia 149", "Provincia": "Santa Fe", "Localidad": "Las Rosas", "CodigoPostal": "2520", "CUIT": "20218553428", "InstitucionPresentacion": "Colegio de Santa Fe 2da.Circ.", "Entidad": "Fefara", "PAIS": "Argentina" }, "geometry": { "type": "Point", "coordinates": [ -60.9186654, -31.9785284 ] } },
{ "type": "Feature", "properties": { "CodigoHomologado": "909018323", "Nombre": "BIANCHI MARCELA", "Direccion": "Riobamba 3595", "Provincia": "Santa Fe", "Localidad": "Rosario", "CodigoPostal": "2000", "CUIT": "27181072461", "InstitucionPresentacion": "Colegio de Santa Fe 2da.Circ.", "Entidad": "Fefara", "PAIS": "Argentina" }, "geometry": { "type": "Point", "coordinates": [ -60.6764426, -32.9570373 ] } },
{ "type": "Feature", "properties": { "CodigoHomologado": "909020044", "Nombre": "AIRA", "Direccion": "Belgrano 846", "Provincia": "Santa Fe", "Localidad": "Las Rosas", "CodigoPostal": "2520", "CUIT": "20078916231", "InstitucionPresentacion": "Colegio de Santa Fe 2da.Circ.", "Entidad": "Fefara", "PAIS": "Argentina" }, "geometry": { "type": "Point", "coordinates": [ -60.9242311, -31.9836651 ] } },
{ "type": "Feature", "properties": { "CodigoHomologado": "909015536", "Nombre": "AMBAY", "Direccion": "San Juan 2296", "Provincia": "Santa Fe", "Localidad": "Rosario", "CodigoPostal": "2000", "CUIT": "30617876783", "InstitucionPresentacion": "Colegio de Santa Fe 2da.Circ.", "Entidad": "Fefara", "PAIS": "Argentina" }, "geometry": { "type": "Point", "coordinates": [ -60.655405259, -32.947196627 ] } },
{ "type": "Feature", "properties": { "CodigoHomologado": "915203468", "Nombre": "PARDO", "Direccion": "9 de Julio 3443", "Provincia": "Santa Fe", "Localidad": "Santa Fe", "CodigoPostal": "3000", "CUIT": "27204550625", "InstitucionPresentacion": "Colegio de Santa Fe 1ra.Circ.", "Entidad": "Fefara", "PAIS": "Argentina" }, "geometry": { "type": "Point", "coordinates": [ -60.672080186, -32.948153829 ] } },
{ "type": "Feature", "properties": { "CodigoHomologado": "909206431", "Nombre": "RUGGERI", "Direccion": "Mendoza 641", "Provincia": "Santa Fe", "Localidad": "Montes de Oca", "CodigoPostal": "2521", "CUIT": "20289387545", "InstitucionPresentacion": "Colegio de Santa Fe 2da.Circ.", "Entidad": "Fefara", "PAIS": "Argentina" }, "geometry": { "type": "Point", "coordinates": [ -61.7671825, -32.5666047 ] } },
{ "type": "Feature", "properties": { "CodigoHomologado": "915009611", "Nombre": "MEYNET", "Direccion": "Bartolome Mitre 1124", "Provincia": "Santa Fe", "Localidad": "Galvez", "CodigoPostal": "2252", "CUIT": "27222835009", "InstitucionPresentacion": "Colegio de Santa Fe 1ra.Circ.", "Entidad": "Fefara", "PAIS": "Argentina" }, "geometry": { "type": "Point", "coordinates": [ -61.2261401, -32.0340354 ] } },
{ "type": "Feature", "properties": { "CodigoHomologado": "909203477", "Nombre": "FRANCISCONI", "Direccion": "Flotron 1745", "Provincia": "Santa Fe", "Localidad": "Armstrong", "CodigoPostal": "2508", "CUIT": "27178949190", "InstitucionPresentacion": "Colegio de Santa Fe 2da.Circ.", "Entidad": "Fefara", "PAIS": "Argentina" }, "geometry": { "type": "Point", "coordinates": [ -61.6062341, -32.7797753 ] } },
{ "type": "Feature", "properties": { "CodigoHomologado": "909023591", "Nombre": "BALSAMO", "Direccion": "Roldan 1501", "Provincia": "Santa Fe", "Localidad": "Armstrong", "CodigoPostal": "2508", "CUIT": "27128587824", "InstitucionPresentacion": "Colegio de Santa Fe 2da.Circ.", "Entidad": "Fefara", "PAIS": "Argentina" }, "geometry": { "type": "Point", "coordinates": [ -61.6013905, -32.7833272 ] } },
{ "type": "Feature", "properties": { "CodigoHomologado": "909202838", "Nombre": "FAGGI", "Direccion": "French 1276 - Local A", "Provincia": "Santa Fe", "Localidad": "Rosario", "CodigoPostal": "2000", "CUIT": "27207051069", "InstitucionPresentacion": "Camara de Santa Fe", "Entidad": "Facaf", "PAIS": "Argentina" }, "geometry": { "type": "Point", "coordinates": [ -60.8792651, -33.0256591 ] } },
{ "type": "Feature", "properties": { "CodigoHomologado": "909024851", "Nombre": "TAULAMET", "Direccion": "Laprida 802", "Provincia": "Santa Fe", "Localidad": "Cañada de Gomez", "CodigoPostal": "2500", "CUIT": "27133922542", "InstitucionPresentacion": "Camara de Santa Fe", "Entidad": "Facaf", "PAIS": "Argentina" }, "geometry": { "type": "Point", "coordinates": [ -61.4029835, -32.8164506 ] } },
{ "type": "Feature", "properties": { "CodigoHomologado": "909023311", "Nombre": "ROMAGNOLI", "Direccion": "Lisandro de la Torre 643", "Provincia": "Santa Fe", "Localidad": "Villa Constitucion", "CodigoPostal": "2919", "CUIT": "27121582371", "InstitucionPresentacion": "Colegio de Santa Fe 2da.Circ.", "Entidad": "Fefara", "PAIS": "Argentina" }, "geometry": { "type": "Point", "coordinates": [ -60.332545186, -33.228691386 ] } },
{ "type": "Feature", "properties": { "CodigoHomologado": "909017575", "Nombre": "FEDYSZYN", "Direccion": "San Martin 1032", "Provincia": "Santa Fe", "Localidad": "Ibarlucea", "CodigoPostal": "2142", "CUIT": "27131748618", "InstitucionPresentacion": "Colegio de Santa Fe 2da.Circ.", "Entidad": "Fefara", "PAIS": "Argentina" }, "geometry": { "type": "Point", "coordinates": [ -60.786730801, -32.85252085 ] } },
{ "type": "Feature", "properties": { "CodigoHomologado": "909030151", "Nombre": "VARELA", "Direccion": "Moreno 3096", "Provincia": "Santa Fe", "Localidad": "Rosario", "CodigoPostal": "2000", "CUIT": "27201426133", "InstitucionPresentacion": "Colegio de Santa Fe 2da.Circ.", "Entidad": "Fefara", "PAIS": "Argentina" }, "geometry": { "type": "Point", "coordinates": [ -60.6695698, -33.1775237 ] } },
{ "type": "Feature", "properties": { "CodigoHomologado": "909021426", "Nombre": "MILANESE", "Direccion": "Porteña 130", "Provincia": "Santa Fe", "Localidad": "Salto Grande", "CodigoPostal": "2142", "CUIT": "27105196968", "InstitucionPresentacion": "Colegio de Santa Fe 2da.Circ.", "Entidad": "Fefara", "PAIS": "Argentina" }, "geometry": { "type": "Point", "coordinates": [ -61.0872962, -32.6676452 ] } },
{ "type": "Feature", "properties": { "CodigoHomologado": "915008740", "Nombre": "CAMPANINI", "Direccion": "Av. Maritano 1341", "Provincia": "Santa Fe", "Localidad": "San Genaro", "CodigoPostal": "2146", "CUIT": "27161733984", "InstitucionPresentacion": "Colegio de Santa Fe 1ra.Circ.", "Entidad": "Fefara", "PAIS": "Argentina" }, "geometry": { "type": "Point", "coordinates": [ -61.3557206, -32.3682845 ] } },
{ "type": "Feature", "properties": { "CodigoHomologado": "909025473", "Nombre": "ASBORNO", "Direccion": "Sarmiento 799", "Provincia": "Santa Fe", "Localidad": "Santa Teresa", "CodigoPostal": "2111", "CUIT": "20178553810", "InstitucionPresentacion": "Colegio de Santa Fe 2da.Circ.", "Entidad": "Fefara", "PAIS": "Argentina" }, "geometry": { "type": "Point", "coordinates": [ -60.794582, -33.439618 ] } },
{ "type": "Feature", "properties": { "CodigoHomologado": "909030737", "Nombre": "SANCHEZ", "Direccion": "Cordoba 1994", "Provincia": "Santa Fe", "Localidad": "Pueblo Esther", "CodigoPostal": "2126", "CUIT": "27239737361", "InstitucionPresentacion": "Colegio de Santa Fe 2da.Circ.", "Entidad": "Fefara", "PAIS": "Argentina" }, "geometry": { "type": "Point", "coordinates": [ -60.56334, -33.0743022 ] } },
{ "type": "Feature", "properties": { "CodigoHomologado": "909013419", "Nombre": "SCHIRO", "Direccion": "San Martin 658", "Provincia": "Santa Fe", "Localidad": "Rosario", "CodigoPostal": "2000", "CUIT": "27121347453", "InstitucionPresentacion": "Circulo de Rosario", "Entidad": "COFA", "PAIS": "Argentina" }, "geometry": { "type": "Point", "coordinates": [ -60.636382471, -32.945257829 ] } },
{ "type": "Feature", "properties": { "CodigoHomologado": "909026235", "Nombre": "AMADIO", "Direccion": "Moreno 70", "Provincia": "Santa Fe", "Localidad": "Sancti Spiritu", "CodigoPostal": "2617", "CUIT": "27181089569", "InstitucionPresentacion": "Colegio de Santa Fe 2da.Circ.", "Entidad": "Fefara", "PAIS": "Argentina" }, "geometry": { "type": "Point", "coordinates": [ -62.2482121, -34.0054628 ] } },
{ "type": "Feature", "properties": { "CodigoHomologado": "909022454", "Nombre": "FERRARA", "Direccion": "Lisandro de la Torre 555", "Provincia": "Santa Fe", "Localidad": "Los Molinos", "CodigoPostal": "2181", "CUIT": "27111509919", "InstitucionPresentacion": "Colegio de Santa Fe 2da.Circ.", "Entidad": "Fefara", "PAIS": "Argentina" }, "geometry": { "type": "Point", "coordinates": [ -61.325404, -33.1049195 ] } },
{ "type": "Feature", "properties": { "CodigoHomologado": "932012280", "Nombre": "PRADO", "Direccion": "M. Cernadas 110", "Provincia": "Buenos Aires", "Localidad": "San Nicolas de los Arroyos", "CodigoPostal": "2900", "CUIT": "23176468114", "InstitucionPresentacion": "Colegio de San Nicolas (Sefar)", "Entidad": "COFA", "PAIS": "Argentina" }, "geometry": { "type": "Point", "coordinates": [ -60.1997773, -33.346971 ] } },
{ "type": "Feature", "properties": { "CodigoHomologado": "909019211", "Nombre": "LAPRIDA", "Direccion": "9 de Julio y Laprida", "Provincia": "Santa Fe", "Localidad": "Rosario", "CodigoPostal": "2000", "CUIT": "20167281371", "InstitucionPresentacion": "Circulo de Rosario", "Entidad": "COFA", "PAIS": "Argentina" }, "geometry": { "type": "Point", "coordinates": [ -60.6430235, -32.9820722 ] } },
{ "type": "Feature", "properties": { "CodigoHomologado": "909017418", "Nombre": "PASCUAL", "Direccion": "Arijon 2727 D", "Provincia": "Santa Fe", "Localidad": "Rosario", "CodigoPostal": "2000", "CUIT": "27135880634", "InstitucionPresentacion": "Colegio de Santa Fe 2da.Circ.", "Entidad": "Fefara", "PAIS": "Argentina" }, "geometry": { "type": "Point", "coordinates": [ -60.6811991, -33.0039778 ] } },
{ "type": "Feature", "properties": { "CodigoHomologado": "909024183", "Nombre": "ARAN", "Direccion": "Rivadavia 254", "Provincia": "Santa Fe", "Localidad": "Sanford", "CodigoPostal": "2173", "CUIT": "27166215779", "InstitucionPresentacion": "Colegio de Santa Fe 2da.Circ.", "Entidad": "Fefara", "PAIS": "Argentina" }, "geometry": { "type": "Point", "coordinates": [ -61.2777322, -33.1456797 ] } },
{ "type": "Feature", "properties": { "CodigoHomologado": "909030676", "Nombre": "TRONCOSO", "Direccion": "Santa Fe 2076", "Provincia": "Santa Fe", "Localidad": "Rosario", "CodigoPostal": "2000", "CUIT": "27058122314", "InstitucionPresentacion": "Colegio de Santa Fe 2da.Circ.", "Entidad": "Fefara", "PAIS": "Argentina" }, "geometry": { "type": "Point", "coordinates": [ -60.651093772, -32.9425362 ] } },
{ "type": "Feature", "properties": { "CodigoHomologado": "909019719", "Nombre": "UMANSKY", "Direccion": "San Martin 3998", "Provincia": "Santa Fe", "Localidad": "Rosario", "CodigoPostal": "2000", "CUIT": "27128044987", "InstitucionPresentacion": "Circulo de Rosario", "Entidad": "COFA", "PAIS": "Argentina" }, "geometry": { "type": "Point", "coordinates": [ -60.5019727, -33.164072 ] } },
{ "type": "Feature", "properties": { "CodigoHomologado": "909016826", "Nombre": "AMAT", "Direccion": "Dean Funes 5785", "Provincia": "Santa Fe", "Localidad": "Rosario", "CodigoPostal": "2000", "CUIT": "23170794354", "InstitucionPresentacion": "Colegio de Santa Fe 2da.Circ.", "Entidad": "Fefara", "PAIS": "Argentina" }, "geometry": { "type": "Point", "coordinates": [ -60.6386186, -32.9768893 ] } },
{ "type": "Feature", "properties": { "CodigoHomologado": "909016921", "Nombre": "BONACCI", "Direccion": "Castro Barros 5202", "Provincia": "Santa Fe", "Localidad": "Rosario", "CodigoPostal": "2000", "CUIT": "27170558524", "InstitucionPresentacion": "Colegio de Santa Fe 2da.Circ.", "Entidad": "Fefara", "PAIS": "Argentina" }, "geometry": { "type": "Point", "coordinates": [ -60.6296412, -32.997229 ] } },
{ "type": "Feature", "properties": { "CodigoHomologado": "909014076", "Nombre": "MARCOLINI", "Direccion": "Rueda 2480", "Provincia": "Santa Fe", "Localidad": "Rosario", "CodigoPostal": "2000", "CUIT": "20060570044", "InstitucionPresentacion": "Circulo de Rosario", "Entidad": "COFA", "PAIS": "Argentina" }, "geometry": { "type": "Point", "coordinates": [ -60.663177286, -32.967629329 ] } },
{ "type": "Feature", "properties": { "CodigoHomologado": "909203429", "Nombre": "PALAZZESI", "Direccion": "Rivadavia 550", "Provincia": "Santa Fe", "Localidad": "San Jose de la Esquina", "CodigoPostal": "2185", "CUIT": "27174989279", "InstitucionPresentacion": "Colegio de Santa Fe 2da.Circ.", "Entidad": "Fefara", "PAIS": "Argentina" }, "geometry": { "type": "Point", "coordinates": [ -61.7031263, -33.1093267 ] } },
{ "type": "Feature", "properties": { "CodigoHomologado": "909200866", "Nombre": "GIANINETTO DE BRINGAS", "Direccion": "25 de mayo 111", "Provincia": "Santa Fe", "Localidad": "San Jose de la Esquina", "CodigoPostal": "2185", "CUIT": "27174900715", "InstitucionPresentacion": "Colegio de Santa Fe 2da.Circ.", "Entidad": "Fefara", "PAIS": "Argentina" }, "geometry": { "type": "Point", "coordinates": [ -61.7020183, -33.1095095 ] } },
{ "type": "Feature", "properties": { "CodigoHomologado": "909018912", "Nombre": "CICCONI", "Direccion": "Cerrito 684", "Provincia": "Santa Fe", "Localidad": "alvarez", "CodigoPostal": "2107", "CUIT": "27185513683", "InstitucionPresentacion": "Circulo de Rosario", "Entidad": "COFA", "PAIS": "Argentina" }, "geometry": { "type": "Point", "coordinates": [ -60.8083947, -33.1325358 ] } },
{ "type": "Feature", "properties": { "CodigoHomologado": "909030087", "Nombre": "ARIAS MARISA", "Direccion": "Tucuman 917", "Provincia": "Santa Fe", "Localidad": "alvarez", "CodigoPostal": "2107", "CUIT": "27202778351", "InstitucionPresentacion": "Circulo de Rosario", "Entidad": "COFA", "PAIS": "Argentina" }, "geometry": { "type": "Point", "coordinates": [ -60.8028566, -33.1240125 ] } },
{ "type": "Feature", "properties": { "CodigoHomologado": "932011640", "Nombre": "CEJ", "Direccion": "Maipu 498", "Provincia": "Buenos Aires", "Localidad": "San Nicolas de los Arroyos", "CodigoPostal": "2900", "CUIT": "20165353898", "InstitucionPresentacion": "Colegio de San Nicolas (Sefar)", "Entidad": "COFA", "PAIS": "Argentina" }, "geometry": { "type": "Point", "coordinates": [ -60.208837887, -33.342175908 ] } },
{ "type": "Feature", "properties": { "CodigoHomologado": "915007988", "Nombre": "ROJAS", "Direccion": "Av. Blas Parera 7202", "Provincia": "Santa Fe", "Localidad": "Santa Fe", "CodigoPostal": "3000", "CUIT": "27173397033", "InstitucionPresentacion": "Colegio de Santa Fe 1ra.Circ.", "Entidad": "Fefara", "PAIS": "Argentina" }, "geometry": { "type": "Point", "coordinates": [ -60.7194411, -31.6086443 ] } },
{ "type": "Feature", "properties": { "CodigoHomologado": "932011020", "Nombre": "DIAMANTE", "Direccion": "Alvarez y Belgrano", "Provincia": "Buenos Aires", "Localidad": "San Nicolas de los Arroyos", "CodigoPostal": "2900", "CUIT": "23206422874", "InstitucionPresentacion": "Colegio de San Nicolas (Sefar)", "Entidad": "COFA", "PAIS": "Argentina" }, "geometry": { "type": "Point", "coordinates": [ -60.2370177, -33.3360187 ] } },
{ "type": "Feature", "properties": { "CodigoHomologado": "932011823", "Nombre": "CARDINI", "Direccion": "LEODEGARIO CORDOBA 71", "Provincia": "Buenos Aires", "Localidad": "La Emilia", "CodigoPostal": "2901", "CUIT": "23112512144", "InstitucionPresentacion": "Colegio de San Nicolas (Sefar)", "Entidad": "COFA", "PAIS": "Argentina" }, "geometry": { "type": "Point", "coordinates": [ -60.3157239, -33.3504383 ] } },
{ "type": "Feature", "properties": { "CodigoHomologado": "909200080", "Nombre": "LOPEZ TEMPORELLI", "Direccion": "Av. Arijon 521", "Provincia": "Santa Fe", "Localidad": "Rosario", "CodigoPostal": "2000", "CUIT": "27215315407", "InstitucionPresentacion": "Colegio de Santa Fe 2da.Circ.", "Entidad": "Fefara", "PAIS": "Argentina" }, "geometry": { "type": "Point", "coordinates": [ -60.6748263, -33.003826 ] } },
{ "type": "Feature", "properties": { "CodigoHomologado": "909011012", "Nombre": "DELVECCHIO", "Direccion": "Humberto I 659", "Provincia": "Santa Fe", "Localidad": "Arroyo Seco", "CodigoPostal": "2128", "CUIT": "27052572768", "InstitucionPresentacion": "Circulo de Rosario", "Entidad": "COFA", "PAIS": "Argentina" }, "geometry": { "type": "Point", "coordinates": [ -60.5066573, -33.157918 ] } },
{ "type": "Feature", "properties": { "CodigoHomologado": "909201396", "Nombre": "CORRIENTES", "Direccion": "Corrientes 785", "Provincia": "Santa Fe", "Localidad": "Rosario", "CodigoPostal": "2000", "CUIT": "27059884536", "InstitucionPresentacion": "Camara de Santa Fe", "Entidad": "Facaf", "PAIS": "Argentina" }, "geometry": { "type": "Point", "coordinates": [ -60.6421916, -32.9454549 ] } },
{ "type": "Feature", "properties": { "CodigoHomologado": "915002978", "Nombre": "COLOMBO", "Direccion": "Rivadavia 1082", "Provincia": "Santa Fe", "Localidad": "Sauce Viejo", "CodigoPostal": "3017", "CUIT": "27138619236", "InstitucionPresentacion": "Colegio de Santa Fe 1ra.Circ.", "Entidad": "Fefara", "PAIS": "Argentina" }, "geometry": { "type": "Point", "coordinates": [ -60.836312, -31.7722587 ] } },
{ "type": "Feature", "properties": { "CodigoHomologado": "909206322", "Nombre": "ESPAÑA", "Direccion": "España 1795", "Provincia": "Santa Fe", "Localidad": "Rosario", "CodigoPostal": "2000", "CUIT": "27219355799", "InstitucionPresentacion": "Colegio de Santa Fe 2da.Circ.", "Entidad": "Fefara", "PAIS": "Argentina" }, "geometry": { "type": "Point", "coordinates": [ -60.649419527, -32.956795818 ] } },
{ "type": "Feature", "properties": { "CodigoHomologado": "915007201", "Nombre": "ZELAYA", "Direccion": "Cordoba 744", "Provincia": "Santa Fe", "Localidad": "Maciel", "CodigoPostal": "2208", "CUIT": "27064800154", "InstitucionPresentacion": "Colegio de Santa Fe 1ra.Circ.", "Entidad": "Fefara", "PAIS": "Argentina" }, "geometry": { "type": "Point", "coordinates": [ -60.886464, -32.456571 ] } },
{ "type": "Feature", "properties": { "CodigoHomologado": "932011531", "Nombre": "TALJAME", "Direccion": "Av. Alberdi 346", "Provincia": "Buenos Aires", "Localidad": "San Nicolas de los Arroyos", "CodigoPostal": "2900", "CUIT": "20130326294", "InstitucionPresentacion": "Colegio de San Nicolas (Sefar)", "Entidad": "COFA", "PAIS": "Argentina" }, "geometry": { "type": "Point", "coordinates": [ -60.226174283, -33.32995865 ] } },
{ "type": "Feature", "properties": { "CodigoHomologado": "923200560", "Nombre": "SANTA CECILIA", "Direccion": "Av. Italia 1524", "Provincia": "Formosa", "Localidad": "Formosa", "CodigoPostal": "3600", "CUIT": "20118870981", "InstitucionPresentacion": "CAMARA DE FORMOSA", "Entidad": "FACAF", "PAIS": "Argentina" },