{
  "version": 0.6,
  "generator": "Overpass API 0.7.62.8 e802775f",
  "osm3s": {
    "timestamp_osm_base": "2025-08-14T23:17:01Z",
    "timestamp_areas_base": "2025-08-14T16:27:30Z",
    "copyright": "The data included in this document is from www.openstreetmap.org. The data is made available under ODbL."
  },
  "elements": [

{
  "type": "node",
  "id": 420034699,
  "lat": -28.4498717,
  "lon": -65.7217468,
  "tags": {
    "addr:city": "San Isidro",
    "addr:postcode": "4707",
    "addr:street": "Avenida Presidente Castillo",
    "amenity": "clinic",
    "branch": "Valle Viejo",
    "description": "ECA Sucursal Valle Viejo",
    "healthcare": "clinic",
    "name": "ECA - Emergencias Medicas Catamarca",
    "opening_hours": "24/7"
  }
},
{
  "type": "node",
  "id": 567776738,
  "lat": -28.4685417,
  "lon": -65.7919758,
  "tags": {
    "addr:alt_street": "General Conessa Norte",
    "addr:housenumber": "151",
    "addr:street": "Conesa",
    "amenity": "clinic",
    "healthcare": "clinic",
    "healthcare:speciality": "paediatrics",
    "name": "Clínica del Niño",
    "note": "La numeracion es vieja",
    "operator:type": "private",
    "phone": "+54 383 442 7485"
  }
},
{
  "type": "node",
  "id": 665286724,
  "lat": -34.8694614,
  "lon": -58.4081459,
  "tags": {
    "addr:full": "Granaderos Y Carlos Dihel Barrio Rayo De Sol",
    "addr:postcode": "1854",
    "amenity": "clinic",
    "healthcare": "clinic",
    "name": "CAPS 5 Rayo De Sol",
    "operator": "Municipal",
    "operator:type": "public",
    "phone": "+54 11 43971350",
    "ref:sisa_codigo": "50060282202639",
    "ref:sisa_tipologia": "ESSIDT",
    "website": "https://www.almirantebrown.gov.ar/centros-de-salud/longchamps"
  }
},
{
  "type": "node",
  "id": 718792974,
  "lat": -34.3885937,
  "lon": -58.7374222,
  "tags": {
    "addr:city": "Ingeniero Maschwitz",
    "addr:full": "La Plata 1191 y Maipú 1991",
    "addr:housenumber": "1191",
    "addr:postcode": "1623",
    "addr:street": "La Plata",
    "alt_name": "Sala de Primero Auxilos",
    "amenity": "clinic",
    "description": "Sala Primeros Auxilios Ingeniero Maschwitz pertenece al ámbito de la medicina pública municipal",
    "emergency": "yes",
    "healthcare": "clinic",
    "name": "Sala Argentino Torres",
    "operator": "Municipal",
    "operator:type": "public",
    "phone": "+54 3488-446197",
    "ref:sisa_codigo": "50062522201775",
    "ref:sisa_tipologia": "ESSIDT"
  }
},
{
  "type": "node",
  "id": 726901165,
  "lat": -34.7028941,
  "lon": -58.5869381,
  "tags": {
    "addr:full": "Francisco Segui 6164",
    "addr:postcode": "1765",
    "amenity": "clinic",
    "healthcare": "clinic",
    "name": "Centro De Salud F. Giovinazzo",
    "operator": "Municipal",
    "operator:type": "public",
    "phone": "011-4625-3967",
    "ref:sisa_codigo": "50064272202289",
    "ref:sisa_tipologia": "ESSIDT"
  }
},
{
  "type": "node",
  "id": 757410845,
  "lat": -28.4738992,
  "lon": -65.7783000,
  "tags": {
    "amenity": "clinic",
    "healthcare": "clinic",
    "name": "Salud Pública Municipal",
    "phone": "+54 (03833) 473439"
  }
},
{
  "type": "node",
  "id": 768334529,
  "lat": -29.1622747,
  "lon": -67.4976604,
  "tags": {
    "addr:city": "Chilecito",
    "addr:housenumber": "240",
    "addr:postcode": "5360",
    "addr:street": "La Plata",
    "amenity": "clinic",
    "healthcare": "clinic",
    "is_in:state": "La Rioja",
    "name": "San Nicolas",
    "wikidata": "Q105133182"
  }
},
{
  "type": "node",
  "id": 768334532,
  "lat": -29.1621868,
  "lon": -67.4974127,
  "tags": {
    "addr:city": "Chilecito",
    "addr:housenumber": "255",
    "addr:postcode": "5360",
    "addr:street": "La Plata",
    "amenity": "clinic",
    "healthcare": "clinic",
    "is_in:state": "La Rioja",
    "name": "Clinica Privada",
    "wikidata": "Q105133177"
  }
},
{
  "type": "node",
  "id": 809089281,
  "lat": -27.2109391,
  "lon": -54.9751923,
  "tags": {
    "addr:city": "Campo Grande",
    "addr:postcode": "3362",
    "addr:street": "Avenida Los Cafetales",
    "amenity": "clinic",
    "healthcare": "clinic",
    "name": "Sanatorio Weber"
  }
},
{
  "type": "node",
  "id": 873073560,
  "lat": -34.5864726,
  "lon": -58.4080539,
  "tags": {
    "addr:city": "Ciudad Autónoma de Buenos Aires",
    "addr:country": "AR",
    "addr:housenumber": "2211",
    "addr:postcode": "1425",
    "addr:street": "Avenida Coronel Díaz",
    "amenity": "clinic",
    "healthcare": "hospital",
    "name": "Clínica del Sol",
    "operator:type": "private",
    "phone": "+54 (11) 4821-1600",
    "ref:sisa_codigo": "10020012315191",
    "ref:sisa_tipologia": "ESCIG",
    "website": "https://www.cdelsol.com.ar/",
    "wikidata": "Q93139853"
  }
},
{
  "type": "node",
  "id": 909830243,
  "lat": -34.5108964,
  "lon": -58.5236251,
  "tags": {
    "addr:city": "Olivos",
    "addr:housenumber": "4201",
    "addr:postcode": "B1636",
    "addr:street": "Blas Parera",
    "amenity": "clinic",
    "healthcare": "clinic",
    "healthcare:speciality": "ophthalmology",
    "name": "Clinica Dr. Nano",
    "opening_hours": "Mo-Su 08:00-19:30",
    "phone": "+54 11 4717-4000",
    "survey:date": "2022-09-12",
    "website": "http://www.clinicanano.com.ar/"
  }
},
{
  "type": "node",
  "id": 928601938,
  "lat": -27.4872965,
  "lon": -55.1146854,
  "tags": {
    "addr:city": "Oberá",
    "addr:street": "Avenida Libertad",
    "amenity": "clinic",
    "healthcare": "clinic",
    "name": "El Privado"
  }
},
{
  "type": "node",
  "id": 928601958,
  "lat": -27.4808780,
  "lon": -55.1227249,
  "tags": {
    "addr:city": "Oberá",
    "addr:housenumber": "822",
    "addr:postcode": "3360",
    "addr:street": "French",
    "amenity": "clinic",
    "emergency": "yes",
    "healthcare": "clinic",
    "name": "Clínica Integral Oberá SRL"
  }
},
{
  "type": "node",
  "id": 953607528,
  "lat": -34.4208248,
  "lon": -58.7336201,
  "tags": {
    "addr:city": "Garín",
    "addr:full": "Horacio Dupuy Y Churich S/N - Garin",
    "addr:postcode": "1619",
    "addr:street": "Mateo Churich",
    "amenity": "clinic",
    "contact:facebook": "https://www.facebook.com/Centro-De-Salud-Dr-Luis-Resio-1227281770736590",
    "healthcare": "clinic",
    "name": "Centro De Salud Doctor Luis Ressio",
    "operator": "Municipal",
    "operator:type": "public",
    "phone": "03488-477862",
    "ref:sisa_codigo": "50062522201232",
    "ref:sisa_tipologia": "ESSIDT"
  }
},
{
  "type": "node",
  "id": 1018297769,
  "lat": -34.5717558,
  "lon": -58.4518608,
  "tags": {
    "amenity": "clinic",
    "healthcare": "clinic",
    "name": "Alexander Fleming"
  }
},
{
  "type": "node",
  "id": 1060515882,
  "lat": -34.7314181,
  "lon": -58.3597686,
  "tags": {
    "addr:full": "Corvalán 2107",
    "addr:postcode": "1824",
    "amenity": "clinic",
    "healthcare": "clinic",
    "name": "Unidad Sanitaria San Martín de Lanús",
    "operator": "Municipal",
    "operator:type": "public",
    "phone": "+54 11 42466666",
    "ref:sisa_codigo": "50064342202798",
    "ref:sisa_tipologia": "ESSIDT"
  }
},
{
  "type": "node",
  "id": 1105781544,
  "lat": -34.6649734,
  "lon": -58.7950237,
  "tags": {
    "addr:housenumber": "1719",
    "addr:postcode": "1744",
    "addr:street": "Juramento",
    "alt_name": "Salita Juramento",
    "amenity": "clinic",
    "healthcare": "clinic",
    "name": "Centro de Salud Juramento",
    "official_name": "Centro Asistencial Juramento",
    "operator": "Municipalidad de Moreno",
    "operator:type": "public",
    "phone": "+54 237-4669240",
    "ref:sisa_codigo": "50065602201092",
    "ref:sisa_tipologia": "ESSIDT"
  }
},
{
  "type": "node",
  "id": 1195228509,
  "lat": -27.4570343,
  "lon": -58.9785241,
  "tags": {
    "addr:city": "Resistencia",
    "addr:housenumber": "98",
    "addr:postcode": "3500",
    "addr:street": "Avenida Vélez Sarsfield",
    "alt_name": "Laboratorio Central De Salud Pública Dra. Francisca Luna De Bolsi",
    "amenity": "clinic",
    "healthcare": "clinic",
    "name": "Laboratorio Central",
    "operator": "Provincial",
    "operator:type": "public",
    "phone": "+54 362 4452588",
    "ref:sisa_codigo": "51221402126623",
    "ref:sisa_tipologia": "ESSID"
  }
},
{
  "type": "node",
  "id": 1376329696,
  "lat": -29.7126146,
  "lon": -57.0851074,
  "tags": {
    "addr:city": "Paso de los Libres",
    "addr:housenumber": "876",
    "addr:postcode": "3230",
    "addr:street": "Bartolomé Mitre",
    "amenity": "clinic",
    "contact:facebook": "https://www.facebook.com/pages/Clinica-Madariaga/408935242533228",
    "healthcare": "clinic",
    "name": "Clínica Madariaga",
    "phone": "+54 3772 424390"
  }
},
{
  "type": "node",
  "id": 1376329697,
  "lat": -29.7118012,
  "lon": -57.0972461,
  "tags": {
    "addr:city": "Paso de los Libres",
    "addr:housenumber": "1639",
    "addr:postcode": "3230",
    "addr:street": "Belgrano",
    "amenity": "clinic",
    "healthcare": "clinic",
    "name": "Clínica Medicom",
    "phone": "+54 3772 424111",
    "wikidata": "Q94604886"
  }
},
{
  "type": "node",
  "id": 1402317339,
  "lat": -34.6357269,
  "lon": -58.4525116,
  "tags": {
    "addr:city": "Ciudad Autónoma de Buenos Aires",
    "addr:country": "AR",
    "addr:full": "Avenida Carabobo 801",
    "addr:housenumber": "801",
    "addr:postcode": "1406",
    "addr:street": "Avenida Carabobo",
    "amenity": "clinic",
    "healthcare": "clinic",
    "name": "Centros Médicos Barriales - CMB 4",
    "official_name": "Centro Médico Barrial 4",
    "operator": "Municipal",
    "operator:type": "public",
    "phone": "+541146327525",
    "ref:sisa_codigo": "50020012115418",
    "ref:sisa_tipologia": "ESSIDT"
  }
},
{
  "type": "node",
  "id": 1402317752,
  "lat": -34.6359741,
  "lon": -58.4523292,
  "tags": {
    "amenity": "clinic",
    "healthcare": "clinic",
    "name": "Centro Médico Stamboulian"
  }
},
{
  "type": "node",
  "id": 1402320005,
  "lat": -34.6191312,
  "lon": -58.4651515,
  "tags": {
    "addr:city": "Ciudad Autónoma de Buenos Aires",
    "addr:country": "AR",
    "addr:full": "Paez 2283",
    "addr:housenumber": "2283",
    "addr:postcode": "1406",
    "addr:street": "Páez",
    "amenity": "clinic",
    "healthcare": "clinic",
    "name": "CMB 12",
    "operator": "Municipal",
    "operator:type": "public",
    "phone": "+54 11 4631 8254",
    "ref:sisa_codigo": "50020012115389",
    "ref:sisa_tipologia": "ESSIDT"
  }
},
{
  "type": "node",
  "id": 1429881796,
  "lat": -28.5071893,
  "lon": -59.0457580,
  "tags": {
    "addr:city": "Bella Vista",
    "addr:postcode": "3432",
    "addr:street": "Padre Kloster",
    "amenity": "clinic",
    "emergency": "no",
    "healthcare": "clinic",
    "name": "Plaza"
  }
},
{
  "type": "node",
  "id": 1469315168,
  "lat": -34.7063437,
  "lon": -58.4022224,
  "tags": {
    "addr:full": "Avenida 25 De Mayo 707",
    "addr:postcode": "1824",
    "amenity": "clinic",
    "healthcare": "clinic",
    "name": "Unidad Sanitaria Lanus Oeste",
    "operator": "Municipal",
    "operator:type": "public",
    "phone": "+54 11 42417777/2305",
    "ref:sisa_codigo": "50064342202389",
    "ref:sisa_tipologia": "ESSIDT"
  }
},
{
  "type": "node",
  "id": 1481195715,
  "lat": -34.9071898,
  "lon": -57.9223838,
  "tags": {
    "addr:full": "Calle 124 Entre 5 Y 6 (Ex 62 Y 63)",
    "addr:postcode": "1923",
    "addr:street": "Calle 124",
    "amenity": "clinic",
    "emergency": "no",
    "healthcare": "clinic",
    "name": "Unidad Sanitaria 19 De Berisso",
    "operator": "Municipal",
    "operator:type": "public",
    "phone": "(0221) 424-8655",
    "ref:sisa_codigo": "50060982202542",
    "ref:sisa_tipologia": "ESSIDT"
  }
},
{
  "type": "node",
  "id": 1492530225,
  "lat": -27.9147268,
  "lon": -55.8208406,
  "tags": {
    "addr:city": "Colonia Liebig",
    "addr:street": "Guillermo Brown",
    "amenity": "clinic",
    "description": "Tipología: ESCIG:\nCategoría de tipología: Bajo riesgo con internación simple",
    "healthcare": "clinic",
    "name": "Hospital de Colonia Liebig",
    "phone": "+54 3782 49700;+54 3782 423131"
  }
},
{
  "type": "node",
  "id": 1613140810,
  "lat": -26.8190546,
  "lon": -54.9588114,
  "tags": {
    "addr:city": "Garuhapé",
    "addr:postcode": "3334",
    "addr:street": "Avenida de Las Américas",
    "alt_name": "Centro de Atención Primaria de la Salud Garuhape - Julio Cesar Doy",
    "amenity": "clinic",
    "description": "Categoría de tipología: Con atención médica general por lo menos 3 días de la semana",
    "emergency": "no",
    "healthcare": "clinic",
    "name": "CAPS Garuhape - Julio Cesar Doy",
    "phone": "+54 3743 491419",
    "ref:ZonaSanitaria": "Centro Paraná",
    "ref:cuie_codigo": "N05169",
    "ref:sisa_codigo": "50540772164128",
    "ref:sisa_tipologia": "ESSIDT",
    "wikidata": "Q95369219"
  }
},
{
  "type": "node",
  "id": 1615997787,
  "lat": -54.8334391,
  "lon": -68.3482283,
  "tags": {
    "amenity": "clinic",
    "healthcare": "clinic",
    "internet_access": "yes",
    "internet_access:fee": "no",
    "name": "San Francisco de Asis"
  }
},
{
  "type": "node",
  "id": 1617142080,
  "lat": -36.6705534,
  "lon": -56.6830773,
  "tags": {
    "amenity": "clinic",
    "healthcare": "clinic",
    "name": "Unidad Sanitaria"
  }
},
{
  "type": "node",
  "id": 1653724220,
  "lat": -51.0290615,
  "lon": -70.7782676,
  "tags": {
    "amenity": "clinic",
    "healthcare": "hospital",
    "name": "Puesto Sanitario"
  }
},
{
  "type": "node",
  "id": 1667547333,
  "lat": -35.0139173,
  "lon": -63.3748809,
  "tags": {
    "amenity": "clinic",
    "healthcare": "clinic",
    "name": "Sala 1ros Auxilios"
  }
},
{
  "type": "node",
  "id": 1713188880,
  "lat": -53.7908912,
  "lon": -67.7362058,
  "tags": {
    "amenity": "clinic",
    "healthcare": "clinic",
    "name": "Periférico CAPS 7"
  }
},
{
  "type": "node",
  "id": 1865192867,
  "lat": -34.6488819,
  "lon": -58.7884186,
  "tags": {
    "amenity": "clinic",
    "healthcare": "clinic",
    "name": "OSECAC Moreno"
  }
},
{
  "type": "node",
  "id": 1877489528,
  "lat": -33.1286503,
  "lon": -64.3520982,
  "tags": {
    "amenity": "clinic",
    "healthcare": "clinic",
    "name": "Bio-Imagenes Del Sud"
  }
},
{
  "type": "node",
  "id": 1877875033,
  "lat": -32.0330215,
  "lon": -61.2203050,
  "tags": {
    "amenity": "clinic",
    "healthcare": "clinic",
    "name": "Sanatorios Integrados (Consultorios)"
  }
},
{
  "type": "node",
  "id": 1880933097,
  "lat": -34.7393389,
  "lon": -58.8110303,
  "tags": {
    "addr:full": "Belisario Roldan Entre Filiberto Y Troilo Barrio El Zorzal",
    "addr:postcode": "1727",
    "amenity": "clinic",
    "healthcare": "clinic",
    "name": "Unidad Sanitaria Barrio El Zorzal De Marcos Paz",
    "operator": "Municipal",
    "operator:type": "public",
    "phone": "0220-4983102",
    "ref:sisa_codigo": "50065252202086",
    "ref:sisa_tipologia": "ESSIDT"
  }
},
{
  "type": "node",
  "id": 1903229929,
  "lat": -31.3161929,
  "lon": -64.4633169,
  "tags": {
    "amenity": "clinic",
    "emergency": "no",
    "healthcare": "clinic"
  }
},
{
  "type": "node",
  "id": 1917741733,
  "lat": -33.3146018,
  "lon": -60.6038949,
  "tags": {
    "addr:housenumber": "698",
    "addr:postcode": "2103",
    "addr:street": "Moreno",
    "amenity": "clinic",
    "healthcare": "clinic",
    "name": "Samco Coronel Bogado",
    "operator": "Provincia de Santa Fe",
    "operator:type": "public",
    "phone": "+54 3402 49-1200",
    "ref:sisa_codigo": "50820842184632",
    "ref:sisa_tipologia": "ESSIDT",
    "wikidata": "Q97672947"
  }
},
{
  "type": "node",
  "id": 1943377163,
  "lat": -27.3662625,
  "lon": -55.8995909,
  "tags": {
    "addr:city": "Posadas",
    "addr:housenumber": "2376",
    "addr:postcode": "N3300",
    "addr:street": "Bolívar",
    "amenity": "clinic",
    "emergency": "yes",
    "name": "Sanatorio Integral IOT",
    "phone": "+54 376 4440540",
    "website": "https://www.sanatorioiot.com.ar/",
    "wikidata": "Q95370335"
  }
},
{
  "type": "node",
  "id": 1943391278,
  "lat": -27.3669731,
  "lon": -55.8979311,
  "tags": {
    "addr:city": "Posadas",
    "addr:housenumber": "1840",
    "addr:postcode": "N3300",
    "addr:street": "Junín",
    "amenity": "clinic",
    "name": "Sanatorio Posadas",
    "phone": "+54 376 4425092",
    "website": "http://www.sanatorio-posadas.com.ar/",
    "wheelchair": "yes"
  }
},
{
  "type": "node",
  "id": 1945975301,
  "lat": -27.3684830,
  "lon": -55.8896884,
  "tags": {
    "addr:city": "Posadas",
    "addr:housenumber": "1401",
    "addr:street": "Córdoba",
    "amenity": "clinic",
    "name": "Sanatorio Nosiglia",
    "phone": "+54 376 4440100",
    "website": "http://www.sanatorionosiglia.com.ar/"
  }
},
{
  "type": "node",
  "id": 1990559036,
  "lat": -27.3292849,
  "lon": -58.9517891,
  "tags": {
    "addr:city": "Colonia Benítez",
    "addr:full": "Cardenal S/N - Planta Urbana",
    "addr:postcode": "3505",
    "addr:street": "Cardenal",
    "alt_name": "Centro De Salud Colonia Benitez",
    "amenity": "clinic",
    "healthcare": "clinic",
    "name": "Sala Primeros Auxilios",
    "operator": "Provincial",
    "operator:type": "public",
    "phone": "+54 3722 493011",
    "ref:sisa_codigo": "50221262126188",
    "ref:sisa_tipologia": "ESSIDT"
  }
},
{
  "type": "node",
  "id": 2023165512,
  "lat": -27.4609843,
  "lon": -58.8677041,
  "tags": {
    "addr:full": "Planta Urbana- Cerca Puente General Belgrano",
    "addr:postcode": "3505",
    "amenity": "clinic",
    "healthcare": "clinic",
    "name": "Centro De Salud Barrio San Pedro Pescador",
    "operator": "Provincial",
    "operator:type": "public",
    "ref:sisa_codigo": "50221402126158",
    "ref:sisa_tipologia": "ESSIDT",
    "wikidata": "Q94580132"
  }
},
{
  "type": "node",
  "id": 2023168491,
  "lat": -26.8033590,
  "lon": -58.9559914,
  "tags": {
    "addr:city": "Selvas del Río de Oro",
    "addr:full": "Planta Urbana-Selvas Del Rio De Oro",
    "addr:postcode": "3531",
    "alt_name": "Puesto Sanitario Selva Rio De Oro",
    "amenity": "clinic",
    "healthcare": "clinic",
    "name": "Centro De Salud Selvas Del Rio De Oro",
    "operator": "Provincial",
    "operator:type": "public",
    "ref:sisa_codigo": "50220842126454",
    "ref:sisa_tipologia": "ESSIDT",
    "wikidata": "Q94580677"
  }
},
{
  "type": "node",
  "id": 2023702494,
  "lat": -26.8360956,
  "lon": -59.0676284,
  "tags": {
    "addr:city": "La Eduvigis",
    "addr:full": "Planta Urbana S/N",
    "addr:postcode": "4159",
    "addr:street": "Ruta Provincial 90",
    "amenity": "clinic",
    "healthcare": "clinic",
    "name": "Centro De Salud La Eduvigis",
    "operator": "Provincial",
    "operator:type": "public",
    "ref:sisa_codigo": "50220842126290",
    "ref:sisa_tipologia": "ESSIDT",
    "wikidata": "Q94580399"
  }
},
{
  "type": "node",
  "id": 2035713115,
  "lat": -34.5663935,
  "lon": -58.6492748,
  "tags": {
    "addr:full": "Av. Gdor. Vergara 6100",
    "addr:postcode": "1663",
    "amenity": "clinic",
    "healthcare": "clinic",
    "name": "Hogar Nuestra Señora De Guadalupe",
    "operator": "Municipal",
    "operator:type": "public",
    "phone": "46669898 INT 6111",
    "ref:sisa_codigo": "50067602201628",
    "ref:sisa_tipologia": "ESSIDT"
  }
},
{
  "type": "node",
  "id": 2045253707,
  "lat": -27.2643341,
  "lon": -58.9719401,
  "tags": {
    "addr:city": "Margarita Belen",
    "addr:country": "AR",
    "addr:housenumber": "345",
    "addr:postcode": "3505",
    "addr:state": "Chaco",
    "addr:street": "Inocencio Moro",
    "amenity": "clinic",
    "healthcare": "hospital",
    "name": "Centro Médico Privado",
    "phone": "+54 362 445-4636"
  }
},
{
  "type": "node",
  "id": 2052953525,
  "lat": -25.8668504,
  "lon": -60.5561686,
  "tags": {
    "addr:city": "Paraje Pampa Argentina",
    "addr:full": "Paraje Pampa Argentina",
    "addr:postcode": "1900",
    "alt_name": "Puesto Sanitario",
    "amenity": "clinic",
    "healthcare": "clinic",
    "name": "Centro De Salud Pampa Argentina",
    "operator": "Provincial",
    "operator:type": "public",
    "ref:sisa_codigo": "50220632126380",
    "ref:sisa_tipologia": "ESSIDT",
    "wikidata": "Q94580537"
  }
},
{
  "type": "node",
  "id": 2073343884,
  "lat": -27.4525133,
  "lon": -59.0348089,
  "tags": {
    "amenity": "clinic",
    "healthcare": "clinic",
    "name": "Centro de Salud Villa Barberán",
    "operator": "Provincia del Chaco",
    "operator:type": "public",
    "ref:sisa_codigo": "50221402126470",
    "ref:sisa_tipologia": "ESSIDT",
    "wikidata": "Q94580703"
  }
},
{
  "type": "node",
  "id": 2077402272,
  "lat": -25.7046007,
  "lon": -60.2028951,
  "tags": {
    "addr:city": "Fortín Lavalle",
    "addr:full": "Fortin Lavalle",
    "addr:postcode": "3703",
    "alt_name": "Puesto Sanitario A Fortin Lavalle",
    "amenity": "clinic",
    "healthcare": "clinic",
    "name": "Centro De Salud Fortin Lavalle",
    "operator": "Provincial",
    "operator:type": "public",
    "ref:sisa_codigo": "50220632126263",
    "ref:sisa_tipologia": "ESSIDT",
    "wikidata": "Q94580352"
  }
},
{
  "type": "node",
  "id": 2114551306,
  "lat": -31.5248271,
  "lon": -68.5241815,
  "tags": {
    "addr:city": "San Juan",
    "addr:housenumber": "784 (N)",
    "addr:postcode": "J5400EKP",
    "addr:street": "Tucumán",
    "amenity": "clinic",
    "contact:facebook": "https://www.facebook.com/Cl%C3%ADnica-Santa-Mar%C3%ADa-102171075755972",
    "contact:instagram": "https://www.instagram.com/clinicasantamariasanjuan",
    "contact:whatsapp": "+54 9 264 4724610",
    "description": "Mediano riesgo con internación con cuidados especiales",
    "email": "info@clinicasantamariasanjuan.com.ar",
    "healthcare": "clinic",
    "name": "Clínica Santa María",
    "operator:type": "private",
    "phone": "+54 0264 4203033; +54 0264 4202040",
    "ref:sisa_tipologia": "ESCIG",
    "website": "https://clinicasantamariasanjuan.com.ar"
  }
},
{
  "type": "node",
  "id": 2125045886,
  "lat": -34.3301165,
  "lon": -58.9852994,
  "tags": {
    "addr:housenumber": "74",
    "addr:postcode": "2814",
    "addr:street": "9 de Julio",
    "amenity": "clinic",
    "emergency": "yes",
    "healthcare": "clinic",
    "healthcare:speciality": "general;pediatrics;cardiology;obstetrics;ophthalmology;nutrition;urology;psi",
    "name": "Sala de Primeros Auxilios Los Cardales",
    "opening_hours": "24/7",
    "operator": "Municipalidad de Exaltación de la Cruz",
    "operator:type": "public",
    "phone": "+54 230 4492255",
    "ref:sisa_codigo": "50062662201852",
    "ref:sisa_tipologia": "ESSIDT"
  }
},
{
  "type": "node",
  "id": 2129202002,
  "lat": -24.7935719,
  "lon": -65.4003826,
  "tags": {
    "amenity": "clinic",
    "healthcare": "clinic",
    "name": "Sanatorio Parque"
  }
},
{
  "type": "node",
  "id": 2147189004,
  "lat": -34.6509763,
  "lon": -58.7927824,
  "tags": {
    "amenity": "clinic",
    "healthcare": "clinic",
    "name": "Construir Salud"
  }
},
{
  "type": "node",
  "id": 2156028179,
  "lat": -32.8907983,
  "lon": -68.8455870,
  "tags": {
    "addr:housenumber": "440",
    "addr:street": "Bernardino Rivadavia",
    "amenity": "clinic",
    "building": "yes",
    "healthcare": "clinic",
    "name": "Clinica de Garganta, Nariz Y Oidos",
    "phone": "54 0261 4255839"
  }
},
{
  "type": "node",
  "id": 2157691104,
  "lat": -46.4406786,
  "lon": -67.5137998,
  "tags": {
    "amenity": "clinic",
    "healthcare": "clinic",
    "name": "Clinica Cruz del Sur",
    "wikidata": "Q97655761"
  }
},
{
  "type": "node",
  "id": 2157691146,
  "lat": -46.4408572,
  "lon": -67.5147041,
  "tags": {
    "amenity": "clinic",
    "healthcare": "clinic",
    "name": "CeMI"
  }
},
{
  "type": "node",
  "id": 2171882235,
  "lat": -27.4003156,
  "lon": -58.9851529,
  "tags": {
    "addr:full": "Lote 126 - Barrio Mapic",
    "addr:postcode": "3500",
    "alt_name": "Centro De Salud",
    "amenity": "clinic",
    "healthcare": "clinic",
    "name": "Centro De Salud Barrio Mapic",
    "operator": "Provincial",
    "operator:type": "public",
    "ref:sisa_codigo": "50221402126149",
    "ref:sisa_tipologia": "ESSIDT",
    "wikidata": "Q94580112"
  }
},
{
  "type": "node",
  "id": 2174306503,
  "lat": -28.3201703,
  "lon": -66.1460089,
  "tags": {
    "addr:city": "Mutquin",
    "addr:full": "Calle Pública S/Nº",
    "addr:place": "Poman",
    "addr:postcode": "5317",
    "amenity": "clinic",
    "description": "Con guardia permanente",
    "healthcare": "clinic",
    "name": "Hospital Zonal Santiago Nieva",
    "operator:type": "public",
    "ref:sisa_codigo": "50100842124312",
    "ref:sisa_tipologia": "ESSIDT",
    "source": "sedronar.gov.ar | Public Domain (PD)"
  }
},
{
  "type": "node",
  "id": 2177427995,
  "lat": -32.8832886,
  "lon": -68.8419802,
  "tags": {
    "addr:housenumber": "333",
    "addr:street": "Avenida Godoy Cruz",
    "amenity": "clinic",
    "building": "yes",
    "description": "Unicamente Nariz, Garganta y Oído",
    "healthcare": "clinic",
    "name": "Clínica Godoy Cruz -Nariz, Garganta y Oído",
    "phone": "54 0261 4258340; 4258341",
    "wikidata": "Q100998379"
  }
},
{
  "type": "node",
  "id": 2280320745,
  "lat": -34.7113498,
  "lon": -58.3814409,
  "tags": {
    "addr:full": "Sitio De Montevideo 1862",
    "addr:housenumber": "1862",
    "addr:postcode": "1824",
    "addr:street": "Sitio de Montevideo",
    "amenity": "clinic",
    "healthcare": "clinic",
    "name": "Centro de Medicina Preventiva Doctor Floreal Ferrara (Ex René Favaloro)",
    "operator": "Municipal",
    "operator:type": "public",
    "phone": "+54 11 42400493",
    "ref:sisa_codigo": "50064342201589",
    "ref:sisa_tipologia": "ESSIDT"
  }
},
{
  "type": "node",
  "id": 2290476175,
  "lat": -33.5896137,
  "lon": -69.0158937,
  "tags": {
    "amenity": "clinic",
    "healthcare": "clinic",
    "name": "Sanatorio Valle Uco",
    "wikidata": "Q100998443"
  }
},
{
  "type": "node",
  "id": 2291001655,
  "lat": -33.5880653,
  "lon": -69.0336923,
  "tags": {
    "amenity": "clinic",
    "healthcare": "clinic",
    "name": "Centro de Salud Nº 171"
  }
},
{
  "type": "node",
  "id": 2328629923,
  "lat": -30.9848153,
  "lon": -64.4901122,
  "tags": {
    "amenity": "clinic",
    "healthcare": "clinic",
    "name": "Clínica Privada La Cumbre"
  }
},
{
  "type": "node",
  "id": 2338793572,
  "lat": -34.7823046,
  "lon": -58.4019236,
  "tags": {
    "addr:housenumber": "963",
    "addr:postcode": "1834",
    "addr:street": "Vicente Fidel López",
    "amenity": "clinic",
    "healthcare": "clinic",
    "name": "Centro de Atención Primaria de la Salud Vicente López",
    "opening_hours": "Mo-Fr 07:00-17:00",
    "operator": "Municipalidad de Lomas de Zamora",
    "operator:type": "public",
    "phone": "+54 11 4231-7016",
    "ref:sisa_codigo": "50064902202864",
    "ref:sisa_tipologia": "ESSIDT",
    "short_name": "C.A.P.S. Vicente López"
  }
},
{
  "type": "node",
  "id": 2340430259,
  "lat": -28.4370169,
  "lon": -65.7881138,
  "tags": {
    "amenity": "clinic",
    "healthcare": "clinic",
    "name": "Centro integral de Salud",
    "operator:type": "public",
    "source": "http://www.diarioc.com.ar/salud/Catamarca_cuenta_con_nuevo_Centro_de_Salud_Integral/197266",
    "wheelchair": "yes"
  }
},
{
  "type": "node",
  "id": 2342829246,
  "lat": -27.4801441,
  "lon": -58.8387391,
  "tags": {
    "addr:city": "Corrientes",
    "addr:country": "AR",
    "addr:housenumber": "2001",
    "addr:postcode": "3400",
    "addr:state": "Corrientes",
    "addr:street": "Héroes Civiles",
    "amenity": "clinic",
    "healthcare": "clinic",
    "name": "Hospital José Ramón Vidal"
  }
},
{
  "type": "node",
  "id": 2350170263,
  "lat": -34.7992328,
  "lon": -58.3952200,
  "tags": {
    "addr:city": "Adrogué",
    "addr:housenumber": "831",
    "addr:postcode": "B1846",
    "addr:street": "Francisco Seguí",
    "amenity": "clinic",
    "check_date": "2025-03-09",
    "healthcare": "clinic",
    "name": "Instituto de Rehabilitación Médica IMA",
    "phone": "+54 11 4214-2437"
  }
},
{
  "type": "node",
  "id": 2375624106,
  "lat": -27.8732090,
  "lon": -55.1361029,
  "tags": {
    "addr:city": "San Javier",
    "addr:housenumber": "539",
    "addr:postcode": "3357",
    "addr:street": "Libertad",
    "amenity": "clinic",
    "contact:facebook": "https://www.facebook.com/beatriz1606/",
    "description": "Consultorio Medico Ginecología Obstetricia Pediatría Odontología Laboratorio De Analisis",
    "healthcare": "clinic",
    "name": "Centro de Atención Médica Especializada",
    "phone": "+54 3754 482236",
    "short_name": "CAME"
  }
},
{
  "type": "node",
  "id": 2376632898,
  "lat": -35.6252273,
  "lon": -61.3656539,
  "tags": {
    "amenity": "clinic",
    "emergency": "no",
    "healthcare": "clinic",
    "name": "Consultorios Rivadavia"
  }
},
{
  "type": "node",
  "id": 2378280584,
  "lat": -34.3243212,
  "lon": -58.8478193,
  "tags": {
    "addr:full": "Calle 119 Y Ruta 9 Km 55.500",
    "addr:postcode": "1625",
    "addr:street": "Calle 119",
    "alt_name": "Centro De Salud Doctora Marta Velazco",
    "amenity": "clinic",
    "emergency": "yes",
    "healthcare": "clinic",
    "name": "Sala De Primeros Auxilios Loma Verde",
    "operator": "Municipal",
    "operator:type": "public",
    "phone": "+54 348 449 4563",
    "ref:sisa_codigo": "50062522201851",
    "ref:sisa_tipologia": "ESSIDT",
    "source": "https://www.escobar.gob.ar/wp-content/uploads/2020/03/Cartilla-de-salud-para-la-web.pdf"
  }
},
{
  "type": "node",
  "id": 2383938092,
  "lat": -27.4710865,
  "lon": -58.9942982,
  "tags": {
    "addr:housenumber": "1691",
    "addr:street": "Avenida Las Heras",
    "amenity": "clinic",
    "name": "Centro Regional De Referencia Villa Libertad A. M. De Justo",
    "operator": "Provincia del Chaco",
    "operator:type": "public",
    "ref:sisa_codigo": "50221402126517",
    "ref:sisa_tipologia": "ESSIDT"
  }
},
{
  "type": "node",
  "id": 2384635177,
  "lat": -27.4583126,
  "lon": -59.0084788,
  "tags": {
    "amenity": "clinic"
  }
},
{
  "type": "node",
  "id": 2385726270,
  "lat": -36.6588646,
  "lon": -56.6827466,
  "tags": {
    "amenity": "clinic",
    "healthcare": "clinic",
    "name": "Consultorio Medico"
  }
},
{
  "type": "node",
  "id": 2387619597,
  "lat": -27.4404761,
  "lon": -59.0083489,
  "tags": {
    "addr:full": "Fotheringham 555",
    "addr:postcode": "3500",
    "alt_name": "Centro De Salud Villa Pegoraro",
    "amenity": "clinic",
    "healthcare": "clinic",
    "name": "Centro de Salud 17 de Octubre Villa Pegoraro",
    "operator": "Provincial",
    "operator:type": "public",
    "phone": "+54 362 4468568",
    "ref:sisa_codigo": "50221402126484",
    "ref:sisa_tipologia": "ESSIDT"
  }
},
{
  "type": "node",
  "id": 2393875585,
  "lat": -32.8857786,
  "lon": -68.8325211,
  "tags": {
    "addr:housenumber": "1519",
    "addr:street": "José Federico Moreno",
    "amenity": "clinic",
    "contact:phone": "54 261 4258011",
    "healthcare": "clinic",
    "name": "Clinica Santa Maria",
    "website": "www.clinicasantamaria.com.ar",
    "wikidata": "Q100998396"
  }
},
{
  "type": "node",
  "id": 2408352139,
  "lat": -27.4309652,
  "lon": -59.0054342,
  "tags": {
    "addr:city": "Resistencia",
    "addr:full": "Pasaje Cruz Roja 111",
    "addr:housenumber": "111",
    "addr:postcode": "3500",
    "addr:street": "Pasaje Cruz Roja",
    "amenity": "clinic",
    "contact:facebook": "https://facebook.com/centrodesaludbarriotoba",
    "healthcare": "clinic",
    "name": "Centro de Salud Barrio Toba",
    "operator": "Provincial",
    "operator:type": "public",
    "phone": "+54 362 4468562",
    "ref:sisa_codigo": "50221402126163",
    "ref:sisa_tipologia": "ESSIDT",
    "wikidata": "Q94580148"
  }
},
{
  "type": "node",
  "id": 2411604390,
  "lat": -27.3744964,
  "lon": -57.6546066,
  "tags": {
    "addr:city": "Yahapé",
    "addr:street": "Calle 3",
    "amenity": "clinic",
    "healthcare": "clinic",
    "name": "Puesto de Salud"
  }
},
{
  "type": "node",
  "id": 2411691918,
  "lat": -24.1884701,
  "lon": -65.2992685,
  "tags": {
    "amenity": "clinic",
    "healthcare": "clinic",
    "name": "Clínica Fosatti Otorrinolaringología"
  }
},
{
  "type": "node",
  "id": 2413402310,
  "lat": -27.4331302,
  "lon": -58.9916352,
  "tags": {
    "addr:city": "Resistencia",
    "addr:full": "Raúl B. Díaz 865",
    "addr:housenumber": "865",
    "addr:postcode": "3500",
    "addr:street": "Raúl B. Díaz",
    "alt_name": "Centro De Salud Villa Odorico",
    "amenity": "clinic",
    "healthcare": "clinic",
    "name": "Centro de Salud Santo Domingo de Villa Odorico",
    "operator": "Provincial",
    "operator:type": "public",
    "phone": "+54 362 4468559",
    "ref:sisa_codigo": "50221402126483",
    "ref:sisa_tipologia": "ESSIDT",
    "wikidata": "Q94580724"
  }
},
{
  "type": "node",
  "id": 2419467842,
  "lat": -34.5516914,
  "lon": -58.4411838,
  "tags": {
    "addr:city": "Ciudad Autónoma de Buenos Aires",
    "addr:country": "AR",
    "addr:housenumber": "2250",
    "addr:street": "Ramsay",
    "addr:suburb": "Belgrano",
    "amenity": "clinic",
    "healthcare": "clinic",
    "name": "Incucai",
    "official_name": "Instituto Nacional Central Unico Coordinador de Ablación e Implante",
    "phone": "+54 11 4788-8300",
    "website": "https://www.incucai.gov.ar/"
  }
},
{
  "type": "node",
  "id": 2432403188,
  "lat": -34.5508430,
  "lon": -58.4524420,
  "tags": {
    "addr:city": "Ciudad Autónoma de Buenos Aires",
    "addr:country": "AR",
    "addr:housenumber": "6647",
    "addr:street": "Avenida Del Libertador",
    "addr:suburb": "Belgrano",
    "amenity": "clinic",
    "check_date": "2024-04-15",
    "email": "info@lylyk.com.ar",
    "healthcare": "clinic",
    "healthcare:speciality": "vascular_surgery",
    "name": "Eneri",
    "official_name": "Equipo de Neurocirugía Endovascular Radiología Intervencionista Dr. Pedro Lylyk",
    "phone": "+54 11 4014 7000",
    "website": "https://www.lylyk.com.ar/"
  }
},
{
  "type": "node",
  "id": 2442177560,
  "lat": -27.4384402,
  "lon": -58.9761015,
  "tags": {
    "addr:full": "Pueyrredón 1300",
    "addr:housenumber": "1300",
    "addr:postcode": "3500",
    "addr:street": "Pasaje Pueyrredón",
    "amenity": "clinic",
    "healthcare": "clinic",
    "name": "Centro de Salud Santa Catalina",
    "operator": "Provincial",
    "operator:type": "public",
    "phone": "+54 3722 45-3496",
    "ref:sisa_codigo": "50221402126159",
    "ref:sisa_tipologia": "ESSIDT"
  }
},
{
  "type": "node",
  "id": 2443795114,
  "lat": -27.4477758,
  "lon": -58.9678386,
  "tags": {
    "addr:city": "Resistencia",
    "addr:full": "Lagraña 1200",
    "addr:postcode": "3500",
    "addr:street": "Pasaje Vélez Sársfield",
    "alt_name": "Centro De Salud Doctor Laureano R. Maradona (Lote 202)",
    "amenity": "clinic",
    "healthcare": "clinic",
    "name": "Centro de Salud Doctor Laureano Maradona - Villa Prosperidad",
    "operator": "Provincial",
    "operator:type": "public",
    "phone": "+54 362 4452549",
    "ref:sisa_codigo": "50221402126208",
    "ref:sisa_tipologia": "ESSIDT"
  }
},
{
  "type": "node",
  "id": 2453033698,
  "lat": -32.9164066,
  "lon": -62.4573230,
  "tags": {
    "addr:city": "Monte Buey",
    "addr:housenumber": "578",
    "addr:postcode": "2589",
    "addr:street": "Mitre",
    "amenity": "clinic",
    "emergency": "yes",
    "healthcare": "clinic",
    "name": "Hospital Municipal Dr Lorenzo Colica",
    "phone": "(3467) 470018",
    "wheelchair": "yes"
  }
},
{
  "type": "node",
  "id": 2453034673,
  "lat": -32.9168812,
  "lon": -62.4509655,
  "tags": {
    "addr:city": "Monte Buey",
    "addr:housenumber": "89",
    "addr:postcode": "2589",
    "addr:street": "Rivadavia",
    "amenity": "clinic",
    "emergency": "yes",
    "healthcare": "clinic",
    "name": "Hospital Italiano Moente Buey"
  }
},
{
  "type": "node",
  "id": 2457588967,
  "lat": -31.0084363,
  "lon": -64.2691607,
  "tags": {
    "addr:city": "La Granja",
    "addr:postcode": "X5115",
    "addr:street": "Avenida Los Fresnos",
    "amenity": "clinic",
    "emergency": "no",
    "healthcare": "clinic",
    "name": "Dispensario Municipal de La Granja",
    "operator": "Municipalidad de La Granja",
    "operator:type": "public",
    "phone": "03525 498121"
  }
},
{
  "type": "node",
  "id": 2460972942,
  "lat": -30.7227157,
  "lon": -64.8073780,
  "tags": {
    "amenity": "clinic",
    "healthcare": "clinic",
    "name": "SANOS Ex-Clínica San Carlos",
    "phone": "+543549421999"
  }
},
{
  "type": "node",
  "id": 2464192456,
  "lat": -30.7223574,
  "lon": -64.8065449,
  "tags": {
    "amenity": "clinic",
    "healthcare": "clinic",
    "name": "Empresa Cabrera Servicios de Salud"
  }
},
{
  "type": "node",
  "id": 2465889493,
  "lat": -35.6243966,
  "lon": -61.3653985,
  "tags": {
    "addr:city": "Carlos Casares",
    "addr:housenumber": "238",
    "addr:postcode": "6530",
    "addr:street": "San Martín",
    "amenity": "clinic",
    "healthcare": "clinic",
    "name": "La Pequeña Familia",
    "opening_hours": "24/7",
    "phone": "+54 (2395) 45-2247"
  }
},
{
  "type": "node",
  "id": 2467045289,
  "lat": -34.5678526,
  "lon": -59.1167903,
  "tags": {
    "addr:city": "Luján",
    "addr:housenumber": "475",
    "addr:province": "Buenos Aires",
    "addr:street": "19 - General Las Heras",
    "amenity": "clinic",
    "description": "Atención de prácticas esenciales",
    "healthcare": "doctor",
    "healthcare:speciality": "general",
    "name": "Policlínico Eva Perón",
    "opening_hours": "Mo-Fr 07:00-18:00, Sa 09:00-12:00",
    "operator": "Municipalidad de Luján",
    "operator:type": "public",
    "phone": "+54 2323 42-1260;+54 11 5582-8124"
  }
},
{
  "type": "node",
  "id": 2474076705,
  "lat": -32.9177811,
  "lon": -68.8757328,
  "tags": {
    "addr:housenumber": "2945",
    "addr:street": "Chapanay",
    "amenity": "clinic",
    "fixme": "confirmar ubicacion",
    "healthcare": "clinic",
    "name": "Centro Medico San Telmo",
    "phone": "54 0261 4284602"
  }
},
{
  "type": "node",
  "id": 2474487866,
  "lat": -27.4750750,
  "lon": -58.9721231,
  "tags": {
    "amenity": "clinic",
    "name": "Centro de Salud Barrio General Obligado",
    "operator": "Provincia del Chaco",
    "operator:type": "public",
    "ref:sisa_codigo": "50221402126265",
    "ref:sisa_tipologia": "ESSIDT"
  }
},
{
  "type": "node",
  "id": 2480794971,
  "lat": -32.9090533,
  "lon": -68.8443969,
  "tags": {
    "amenity": "clinic",
    "healthcare": "clinic",
    "name": "Clínica Arizu",
    "wikidata": "Q100998365"
  }
},
{
  "type": "node",
  "id": 2501732441,
  "lat": -27.4762911,
  "lon": -58.9578716,
  "tags": {
    "amenity": "clinic",
    "name": "Consultorios Nuestra Señora de la Merced"
  }
},
{
  "type": "node",
  "id": 2508707383,
  "lat": -37.4552426,
  "lon": -61.9015881,
  "tags": {
    "amenity": "clinic",
    "healthcare": "clinic",
    "name": "Clínica Esquina del Sur"
  }
},
{
  "type": "node",
  "id": 2527515284,
  "lat": -27.4272234,
  "lon": -59.0053300,
  "tags": {
    "addr:city": "Resistencia",
    "addr:full": "Pasaje Rivadavia Y Calle 18",
    "addr:postcode": "3500",
    "addr:street": "Crisanto Domínguez",
    "amenity": "clinic",
    "healthcare": "clinic",
    "name": "Centro De Salud Villa Ghio Doctor Alvarez Lotero",
    "operator": "Provincial",
    "operator:type": "public",
    "phone": "+54 3722 468558",
    "ref:sisa_codigo": "50221402126478",
    "ref:sisa_tipologia": "ESSIDT"
  }
},
{
  "type": "node",
  "id": 2528667858,
  "lat": -27.4342889,
  "lon": -59.0166974,
  "tags": {
    "addr:city": "Resistencia",
    "addr:full": "Jujuy 2775",
    "addr:postcode": "3500",
    "addr:street": "Jujuy",
    "amenity": "clinic",
    "healthcare": "clinic",
    "name": "Centro De Salud Juan De Garay El Tala",
    "operator": "Provincial",
    "operator:type": "public",
    "phone": "+54 3722  468564",
    "ref:sisa_codigo": "50221402126278",
    "ref:sisa_tipologia": "ESSIDT",
    "wikidata": "Q94580383"
  }
},
{
  "type": "node",
  "id": 2530014758,
  "lat": -27.4587540,
  "lon": -58.9624206,
  "tags": {
    "addr:city": "Resistencia",
    "addr:full": "Sargento Cabral 1800",
    "addr:postcode": "3500",
    "addr:street": "San Pedro",
    "alt_name": "Puesto de Salud",
    "amenity": "clinic",
    "healthcare": "clinic",
    "name": "Centro De Salud Lote 203",
    "operator": "Provincial",
    "operator:type": "public",
    "phone": "+54 3722  453494",
    "ref:sisa_codigo": "50221402126349",
    "ref:sisa_tipologia": "ESSIDT",
    "wikidata": "Q94580485"
  }
},
{
  "type": "node",
  "id": 2541232498,
  "lat": -34.8170989,
  "lon": -58.4622738,
  "tags": {
    "amenity": "clinic",
    "name": "Consultorios Médicos"
  }
},
{
  "type": "node",
  "id": 2557748321,
  "lat": -27.4551121,
  "lon": -59.0169815,
  "tags": {
    "amenity": "clinic",
    "name": "Centro Médico San Camilo"
  }
},
{
  "type": "node",
  "id": 2560951031,
  "lat": -29.1672321,
  "lon": -67.4944031,
  "tags": {
    "addr:city": "Chilecito",
    "addr:housenumber": "68",
    "addr:postcode": "5360",
    "addr:street": "Profesor Gregorio Cavero",
    "amenity": "clinic",
    "healthcare": "clinic",
    "name": "SUM ERI",
    "phone": "(03825)- 42-2299/ 42-3992"
  }
},
{
  "type": "node",
  "id": 2577016836,
  "lat": -27.4768917,
  "lon": -58.9655758,
  "tags": {
    "addr:city": "Resistencia",
    "addr:full": "Tránsito Cocomarola (Calle 20) Y Rodríguez Peña (Al Lado De La Vía)",
    "addr:postcode": "3500",
    "addr:street": "Tránsito Cocomarola",
    "alt_name": "Centro De Salud Inmaculada Concepcion - Villa Tte. Saavedra",
    "amenity": "clinic",
    "healthcare": "clinic",
    "name": "Centro de Salud Inmaculada Concepción de Villa Saavedra",
    "operator": "Provincial",
    "operator:type": "public",
    "phone": "+54 3722 453498",
    "ref:sisa_codigo": "50221402126272",
    "ref:sisa_tipologia": "ESSIDT",
    "wikidata": "Q94580369"
  }
},
{
  "type": "node",
  "id": 2579020294,
  "lat": -34.4238485,
  "lon": -58.8681070,
  "tags": {
    "addr:city": "Pilar",
    "addr:full": "Serrano Y Perón",
    "addr:postcode": "1631",
    "addr:street": "José María Serrano",
    "alt_name": "Unidad Sanitaria Villa Rosa",
    "amenity": "clinic",
    "healthcare": "clinic",
    "name": "Centro de Salud Villa Rosa",
    "operator": "Municipal",
    "operator:type": "public",
    "phone": "+54 2322 49 5107",
    "ref:sisa_codigo": "50066382202904",
    "ref:sisa_tipologia": "ESSIDT"
  }
},
{
  "type": "node",
  "id": 2588552911,
  "lat": -27.4590062,
  "lon": -59.0174541,
  "tags": {
    "addr:city": "Resistencia",
    "addr:full": "Mz 86 C 683 Bc Santa Inés",
    "addr:postcode": "3500",
    "addr:street": "María Sáenz de Vernet",
    "amenity": "clinic",
    "healthcare": "clinic",
    "name": "Centro De Salud Barrio Santa Ines",
    "operator": "Provincial",
    "operator:type": "public",
    "phone": "+54 362 4424394",
    "ref:sisa_codigo": "50221402126135",
    "ref:sisa_tipologia": "ESSIDT",
    "wikidata": "Q94580136"
  }
},
{
  "type": "node",
  "id": 2598409395,
  "lat": -30.9144997,
  "lon": -62.6761170,
  "tags": {
    "amenity": "clinic",
    "name": "Centro de Salud Municipal"
  }
},
{
  "type": "node",
  "id": 2604554818,
  "lat": -32.9554216,
  "lon": -68.8589947,
  "tags": {
    "amenity": "clinic",
    "healthcare": "clinic",
    "name": "Clinica Palmares Imágenes"
  }
},
{
  "type": "node",
  "id": 2608689870,
  "lat": -27.4422607,
  "lon": -59.0167661,
  "tags": {
    "amenity": "clinic"
  }
},
{
  "type": "node",
  "id": 2612427816,
  "lat": -32.8889691,
  "lon": -68.8308260,
  "tags": {
    "addr:housenumber": "529",
    "addr:street": "Lavalle",
    "amenity": "clinic",
    "healthcare": "clinic",
    "name": "Clinica del Niño",
    "phone": "+54 261 425-9733"
  }
},
{
  "type": "node",
  "id": 2613499347,
  "lat": -33.1939486,
  "lon": -68.4658912,
  "tags": {
    "amenity": "clinic",
    "healthcare": "clinic",
    "name": "Clínica del Este",
    "wikidata": "Q100998374"
  }
},
{
  "type": "node",
  "id": 2615881283,
  "lat": -34.3838483,
  "lon": -58.8251926,
  "tags": {
    "addr:full": "Sarmiento 41- Matheu",
    "addr:postcode": "1627",
    "amenity": "clinic",
    "healthcare": "clinic",
    "name": "Polo Sanitario Doctor Horacio Canesi",
    "operator": "Municipal",
    "operator:type": "public",
    "phone": "(03488) 462759",
    "ref:sisa_codigo": "50062522201837",
    "ref:sisa_tipologia": "ESSIDT"
  }
},
{
  "type": "node",
  "id": 2624642072,
  "lat": -32.8922370,
  "lon": -68.8421621,
  "tags": {
    "amenity": "clinic",
    "healthcare": "clinic",
    "name": "Clínica"
  }
},
{
  "type": "node",
  "id": 2629923518,
  "lat": -32.9157184,
  "lon": -68.8443649,
  "tags": {
    "addr:city": "Godoy Cruz",
    "addr:street": "Juan de Garay",
    "amenity": "clinic",
    "healthcare": "clinic",
    "name": "Pediatria 24"
  }
},
{
  "type": "node",
  "id": 2629923520,
  "lat": -32.9151684,
  "lon": -68.8456240,
  "tags": {
    "addr:city": "Godoy Cruz",
    "addr:housenumber": "915",
    "addr:street": "Avenida General San Martín",
    "amenity": "clinic",
    "healthcare": "clinic",
    "name": "Resonancia Magnetica - Hospital Español",
    "operator": "Hospital Español"
  }
},
{
  "type": "node",
  "id": 2630269247,
  "lat": -27.4452227,
  "lon": -59.0172926,
  "tags": {
    "addr:full": "Calle Fray Bertaca - Barrio España",
    "addr:postcode": "3500",
    "amenity": "clinic",
    "healthcare": "clinic",
    "name": "Centro De Salud Barrio España",
    "operator": "Provincial",
    "operator:type": "public",
    "phone": "+54 3722 46-8561",
    "ref:sisa_codigo": "50221402126140",
    "ref:sisa_tipologia": "ESSIDT"
  }
},
{
  "type": "node",
  "id": 2634157409,
  "lat": -27.4460568,
  "lon": -59.0171988,
  "tags": {
    "amenity": "clinic"
  }
},
{
  "type": "node",
  "id": 2670073672,
  "lat": -32.9124412,
  "lon": -68.8792342,
  "tags": {
    "addr:housenumber": "1283",
    "addr:street": "La Plata",
    "amenity": "clinic",
    "healthcare": "clinic",
    "name": "CIVSA"
  }
},
{
  "type": "node",
  "id": 2680327955,
  "lat": -27.4502695,
  "lon": -59.0240033,
  "tags": {
    "addr:city": "Resistencia",
    "addr:full": "Ezequiel 2051 - Mz 52 - Barrio 100 Viviendas",
    "addr:housenumber": "2051",
    "addr:postcode": "3500",
    "addr:street": "Ezequiel",
    "alt_name": "Centro De Salud Santa Rita",
    "amenity": "clinic",
    "healthcare": "clinic",
    "name": "Centro de Salud Barrio Santa Rita",
    "operator": "Provincial",
    "operator:type": "public",
    "phone": "+54 362 4467373",
    "ref:sisa_codigo": "50221402126450",
    "ref:sisa_tipologia": "ESSIDT",
    "wikidata": "Q94580673"
  }
},
{
  "type": "node",
  "id": 2693194714,
  "lat": -36.9991712,
  "lon": -57.1376618,
  "tags": {
    "amenity": "clinic",
    "healthcare": "clinic",
    "name": "Instituto Médico Madariaguense"
  }
},
{
  "type": "node",
  "id": 2706294392,
  "lat": -27.4826017,
  "lon": -58.9895864,
  "tags": {
    "addr:city": "Resistencia",
    "addr:full": "Soldado Aguilera Barrio Guiraldes",
    "addr:postcode": "3500",
    "addr:street": "Soldado Aguilera",
    "alt_name": "Centro De Salud Barrio Guiraldes",
    "amenity": "clinic",
    "healthcare": "clinic",
    "name": "Centro de Salud del Barrio Güiraldes Alberto Torresagasti",
    "operator": "Provincial",
    "operator:type": "public",
    "phone": "+54 362 447 8404",
    "ref:sisa_codigo": "50221402126142",
    "ref:sisa_tipologia": "ESSIDT",
    "wikidata": "Q94580101"
  }
},
{
  "type": "node",
  "id": 2707401376,
  "lat": -27.4834276,
  "lon": -58.9807838,
  "tags": {
    "amenity": "clinic",
    "name": "Centro de Salud"
  }
},
{
  "type": "node",
  "id": 2713953018,
  "lat": -32.8912917,
  "lon": -68.8506641,
  "tags": {
    "addr:housenumber": "854",
    "addr:street": "Manuel Belgrano",
    "amenity": "clinic",
    "healthcare": "clinic",
    "name": "Instituto Medicina Reproductiva"
  }
},
{
  "type": "node",
  "id": 2715656523,
  "lat": -32.9947828,
  "lon": -58.5264308,
  "tags": {
    "addr:city": "Gualeguaychú",
    "addr:postcode": "2820",
    "addr:street": "Schachtel",
    "amenity": "clinic",
    "healthcare": "clinic",
    "name": "Sala de primeros auxilos Barrio San Isidro"
  }
},
{
  "type": "node",
  "id": 2733343069,
  "lat": -27.6070791,
  "lon": -55.3289267,
  "tags": {
    "addr:city": "Leandro N. Alem",
    "addr:housenumber": "610",
    "addr:postcode": "3115",
    "addr:street": "Rivadavia",
    "amenity": "clinic",
    "healthcare": "clinic",
    "name": "Centro Médico Integral",
    "phone": "+54 3754 421968"
  }
},
{
  "type": "node",
  "id": 2743537552,
  "lat": -27.4851567,
  "lon": -58.9705127,
  "tags": {
    "amenity": "clinic",
    "name": "Centro de Salud Ángela Micuzzi",
    "operator": "Provincia del Chaco",
    "operator:type": "public",
    "ref:sisa_codigo": "50221402126482",
    "ref:sisa_tipologia": "ESSIDT"
  }
},
{
  "type": "node",
  "id": 2746896855,
  "lat": -34.6540584,
  "lon": -60.4586811,
  "tags": {
    "addr:city": "Chacabuco",
    "addr:postcode": "6740",
    "addr:street": "Italia",
    "amenity": "clinic",
    "healthcare": "clinic",
    "name": "Sanatorio Chacabuco"
  }
},
{
  "type": "node",
  "id": 2775858516,
  "lat": -32.8860381,
  "lon": -68.8458419,
  "tags": {
    "addr:housenumber": "571",
    "addr:postcode": "M5500GLK",
    "addr:street": "Mariano Necochea",
    "amenity": "clinic",
    "healthcare": "clinic",
    "name": "Imagen Diagnostica",
    "opening_hours": "Mo-Sa 08:30-20:30",
    "phone": "54 0261 4291994;4202225",
    "website": "https://www.idiagnostica.com.ar/"
  }
},
{
  "type": "node",
  "id": 2775858518,
  "lat": -32.8860533,
  "lon": -68.8457477,
  "tags": {
    "addr:housenumber": "569",
    "addr:street": "Mariano Necochea",
    "amenity": "clinic",
    "healthcare": "clinic",
    "name": "Genera Salud"
  }
},
{
  "type": "node",
  "id": 2800312575,
  "lat": -26.9344661,
  "lon": -59.5140482,
  "tags": {
    "amenity": "clinic",
    "healthcare": "clinic",
    "name": "Centro de Salud \"Lopez Gallardo\""
  }
},
{
  "type": "node",
  "id": 2810815510,
  "lat": -32.9049855,
  "lon": -68.8433095,
  "tags": {
    "addr:housenumber": "1930",
    "addr:street": "Avenida General San Martín",
    "amenity": "clinic",
    "healthcare": "clinic",
    "name": "SEMA Consultorios Medicos y Rehabilitación"
  }
},
{
  "type": "node",
  "id": 2843821758,
  "lat": -27.3617652,
  "lon": -55.8909014,
  "tags": {
    "addr:city": "Posadas",
    "addr:housenumber": "1615 piso 2",
    "addr:postcode": "3300",
    "addr:street": "Avenida Roque Pérez",
    "amenity": "clinic",
    "email": "dratirante@hotmail.com",
    "name": "Centro de Cirugía Plástica - Adrián Tirante",
    "name:en": "Plastic Surger",
    "office": "company",
    "opening_hours": "Mo-Fr 09:00-20:00",
    "phone": "03764436279",
    "smoking": "no"
  }
},
{
  "type": "node",
  "id": 2845951759,
  "lat": -27.4856586,
  "lon": -58.8250380,
  "tags": {
    "addr:city": "Corrientes",
    "addr:housenumber": "2375",
    "addr:postcode": "3400",
    "addr:street": "Avenida La Paz",
    "amenity": "clinic",
    "healthcare": "clinic",
    "name": "Centro Privado de Servicios y Prestaciones Para Personas Discapacitadas - Crecer Con Todos"
  }
},
{
  "type": "node",
  "id": 2862468524,
  "lat": -33.8717486,
  "lon": -64.6906164,
  "tags": {
    "amenity": "clinic",
    "healthcare": "clinic"
  }
},
{
  "type": "node",
  "id": 2868009378,
  "lat": -26.7782426,
  "lon": -65.1859057,
  "tags": {
    "addr:city": "San Miguel de Tucumán",
    "amenity": "clinic",
    "healthcare": "clinic",
    "name": "Caps San Francisco Solano",
    "phone": "+543814374461",
    "wikidata": "Q98141121"
  }
},
{
  "type": "node",
  "id": 2868011485,
  "lat": -26.7773266,
  "lon": -65.2100828,
  "tags": {
    "amenity": "clinic",
    "healthcare": "clinic",
    "name": "Caps Villa Mariano Moreno"
  }
},
{
  "type": "node",
  "id": 2868019197,
  "lat": -26.7715595,
  "lon": -65.2036178,
  "tags": {
    "amenity": "clinic",
    "healthcare": "clinic",
    "name": "Caps 17 de Agosto"
  }
},
{
  "type": "node",
  "id": 2868021167,
  "lat": -26.7743070,
  "lon": -65.1974419,
  "tags": {
    "amenity": "clinic",
    "healthcare": "clinic",
    "name": "Caps Pablo VI",
    "phone": "+543814374472",
    "wikidata": "Q98141105"
  }
},
{
  "type": "node",
  "id": 2868039444,
  "lat": -26.7570232,
  "lon": -65.1991390,
  "tags": {
    "addr:city": "Las Talitas",
    "addr:full": "Calle 77 Entre C10 Y C12 / Calle C 14 Y C 55 Mz D Lote 1",
    "addr:postcode": "4101",
    "addr:street": "Calle 73",
    "alt_name": "Centro de Atención Municipal de Salud",
    "amenity": "clinic",
    "healthcare": "clinic",
    "name": "Caps Barrio Grafico 2",
    "ref:sisa_codigo": "50901052296108",
    "ref:sisa_tipologia": "ESSIDT"
  }
},
{
  "type": "node",
  "id": 2873898916,
  "lat": -34.6145796,
  "lon": -58.4276735,
  "tags": {
    "addr:city": "Ciudad Autónoma de Buenos Aires",
    "addr:country": "AR",
    "addr:housenumber": "15",
    "addr:postcode": "C1212AAA",
    "addr:street": "Muñiz",
    "amenity": "clinic",
    "healthcare": "clinic",
    "name": "Hospital de Odontología Doctor José Dueñas",
    "operator:type": "public",
    "phone": "+541149830392;+541149838983",
    "ref:sisa_codigo": "50020012115434",
    "ref:sisa_tipologia": "ESSIDT",
    "website": "https://www.buenosaires.gob.ar/hospitaljoseduenas",
    "wikidata": "Q89819748"
  }
},
{
  "type": "node",
  "id": 2885383865,
  "lat": -32.9280726,
  "lon": -60.7387281,
  "tags": {
    "amenity": "clinic",
    "healthcare": "clinic",
    "name": "Sanatorio Centro"
  }
},
{
  "type": "node",
  "id": 2891801546,
  "lat": -34.7408826,
  "lon": -58.3935537,
  "tags": {
    "addr:housenumber": "143",
    "addr:postcode": "1828",
    "addr:street": "Rincón",
    "amenity": "clinic",
    "healthcare": "clinic",
    "name": "Sala Cestoni"
  }
},
{
  "type": "node",
  "id": 2900059908,
  "lat": -27.4250881,
  "lon": -59.0265086,
  "tags": {
    "addr:city": "Fontana",
    "addr:housenumber": "3750",
    "addr:street": "Mendoza",
    "amenity": "clinic",
    "healthcare": "clinic",
    "healthcare:speciality": "obstetrics;dentist;social_work",
    "name": "Centro de Salud Barrio Cacique Pelayo",
    "opening_hours": "Mo-Fr 07:00-19:00; Sa 08:00-12:00",
    "operator": "Ministerio de Salud Pública Chaco",
    "operator:type": "public",
    "phone": "+54 362 4468560"
  }
},
{
  "type": "node",
  "id": 2909244670,
  "lat": -29.8868462,
  "lon": -60.2867174,
  "tags": {
    "addr:city": "Calchaquí",
    "addr:postcode": "S3050",
    "addr:street": "25 de Mayo",
    "amenity": "clinic",
    "healthcare": "clinic",
    "name": "Clínica Sagrado Corazón"
  }
},
{
  "type": "node",
  "id": 2929214916,
  "lat": -33.2040419,
  "lon": -68.6523436,
  "tags": {
    "addr:city": "Medrano",
    "addr:housenumber": "600",
    "addr:postcode": "5585",
    "addr:street": "Groezinger",
    "amenity": "clinic",
    "name": "Centro de Salud",
    "note": "Los Cawboys"
  }
},
{
  "type": "node",
  "id": 2931506906,
  "lat": -31.6613659,
  "lon": -64.4318130,
  "tags": {
    "addr:full": "Srta. Ema Ceballos Esq. Paraguay",
    "addr:postcode": "5186",
    "amenity": "clinic",
    "healthcare": "clinic",
    "name": "Dispensario 3 Doctor Ramon Carrillo",
    "operator": "municipal",
    "operator:type": "public",
    "phone": "(03547) 15-650878 / 428",
    "ref:sisa_codigo": "50141472231787",
    "ref:sisa_tipologia": "ESSIDT"
  }
},
{
  "type": "node",
  "id": 2941391505,
  "lat": -24.1872855,
  "lon": -65.2986209,
  "tags": {
    "addr:city": "San Salvador de Jujuy",
    "addr:postcode": "4600",
    "addr:street": "Canónigo Juan Ignacio Gorriti",
    "amenity": "clinic",
    "healthcare": "clinic",
    "name": "Ingreso Consultorios Externos"
  }
},
{
  "type": "node",
  "id": 2942329823,
  "lat": -32.9123865,
  "lon": -68.8357718,
  "tags": {
    "amenity": "clinic",
    "healthcare": "clinic",
    "name": "Clínica Neurología"
  }
},
{
  "type": "node",
  "id": 2943026047,
  "lat": -24.1878149,
  "lon": -65.3011559,
  "tags": {
    "addr:city": "San Salvador de Jujuy",
    "addr:postcode": "4600",
    "addr:street": "Independencia",
    "amenity": "clinic",
    "healthcare": "clinic",
    "name": "Centro Médico Dermatológico"
  }
},
{
  "type": "node",
  "id": 2943375682,
  "lat": -32.8914207,
  "lon": -68.8491009,
  "tags": {
    "amenity": "clinic",
    "healthcare": "clinic",
    "name": "Cenro Oftalmologico Guinazu"
  }
},
{
  "type": "node",
  "id": 2943375683,
  "lat": -32.8908235,
  "lon": -68.8486762,
  "tags": {
    "addr:housenumber": "935",
    "addr:street": "Perú",
    "amenity": "clinic",
    "healthcare": "clinic",
    "name": "Centro Integral Nefrologico",
    "phone": "54 0261 4203318"
  }
},
{
  "type": "node",
  "id": 2943375684,
  "lat": -32.8905682,
  "lon": -68.8486044,
  "tags": {
    "addr:housenumber": "989",
    "addr:street": "Perú",
    "amenity": "clinic",
    "healthcare": "clinic",
    "name": "Centro Neurología Infanto Juvenil"
  }
},
{
  "type": "node",
  "id": 2944668551,
  "lat": -27.4822114,
  "lon": -58.9374426,
  "tags": {
    "amenity": "clinic",
    "healthcare": "clinic"
  }
},
{
  "type": "node",
  "id": 2944668558,
  "lat": -27.4841532,
  "lon": -58.9481388,
  "tags": {
    "addr:city": "Barranqueras",
    "addr:postcode": "3500",
    "addr:street": "Brasil",
    "amenity": "clinic",
    "name": "Centro Médico Barranqueras"
  }
},
{
  "type": "node",
  "id": 2969205833,
  "lat": -32.8926723,
  "lon": -68.8520441,
  "tags": {
    "addr:housenumber": "121",
    "addr:postcode": "5501",
    "addr:street": "Arístides Villanueva",
    "amenity": "clinic",
    "healthcare": "clinic",
    "name": "Arístides Neurología"
  }
},
{
  "type": "node",
  "id": 2974474224,
  "lat": -36.8958689,
  "lon": -60.3201932,
  "tags": {
    "amenity": "clinic",
    "healthcare": "clinic",
    "name": "Clinica y Maternidad Maria Auxiliadora"
  }
},
{
  "type": "node",
  "id": 2974474225,
  "lat": -36.8930939,
  "lon": -60.3152579,
  "tags": {
    "amenity": "clinic",
    "healthcare": "clinic",
    "name": "Laboratorio de Analisis Clinicos"
  }
},
{
  "type": "node",
  "id": 2976798531,
  "lat": -27.4906061,
  "lon": -58.9779810,
  "tags": {
    "addr:full": "Fortín Aguilar Y Pasaje Bibiano Meza",
    "addr:postcode": "3500",
    "alt_name": "Centro De Salud San Fernando",
    "amenity": "clinic",
    "healthcare": "clinic",
    "name": "Centro de Salud San Fernando Emanuel",
    "operator": "Provincial",
    "operator:type": "public",
    "phone": "+54 3722 478420",
    "ref:sisa_codigo": "50221402126651",
    "ref:sisa_tipologia": "ESSIDT",
    "wikidata": "Q94580658"
  }
},
{
  "type": "node",
  "id": 2987079657,
  "lat": -31.7644135,
  "lon": -60.4991375,
  "tags": {
    "addr:city": "Paraná",
    "addr:country": "AR",
    "addr:housenumber": "1462",
    "addr:postcode": "3100",
    "addr:street": "Avenida Zanni",
    "amenity": "clinic",
    "contact:phone": "+54 343 4260426",
    "healthcare": "clinic",
    "name": "Doctor Arturo Oñativia",
    "phone": "+54 343 4260426",
    "ref:sisa_codigo": "50300842142416",
    "ref:sisa_tipologia": "ESSIDT"
  }
},
{
  "type": "node",
  "id": 3000792103,
  "lat": -26.8237926,
  "lon": -65.2048038,
  "tags": {
    "addr:housenumber": "615",
    "addr:street": "Santiago del Estero",
    "amenity": "clinic",
    "healthcare": "clinic",
    "name": "Centro Privado Urologico"
  }
},
{
  "type": "node",
  "id": 3002763659,
  "lat": -26.8330735,
  "lon": -65.2012827,
  "tags": {
    "addr:housenumber": "219",
    "addr:street": "Crisóstomo Álvarez",
    "amenity": "clinic",
    "healthcare": "clinic",
    "name": "Cimer"
  }
},
{
  "type": "node",
  "id": 3003134425,
  "lat": -26.8292190,
  "lon": -65.2170985,
  "tags": {
    "addr:housenumber": "50",
    "addr:street": "San Luis",
    "amenity": "clinic",
    "healthcare": "clinic",
    "name": "Clinica Odontologica"
  }
},
{
  "type": "node",
  "id": 3003576196,
  "lat": -34.5667176,
  "lon": -58.4531860,
  "tags": {
    "amenity": "clinic",
    "check_date": "2025-03-15",
    "healthcare": "doctor",
    "name": "Hospital Italiano - Sede Belgrano 2"
  }
},
{
  "type": "node",
  "id": 3011135887,
  "lat": -34.6124168,
  "lon": -58.5081368,
  "tags": {
    "addr:city": "Ciudad Autónoma de Buenos Aires",
    "addr:country": "AR",
    "addr:housenumber": "4509",
    "addr:street": "Nogoyá",
    "amenity": "clinic",
    "healthcare": "clinic",
    "name": "Centro de Traumatologia y Acupuntura Serpone Miguel F.",
    "phone": "+54 11 4568-9651"
  }
},
{
  "type": "node",
  "id": 3012264372,
  "lat": -33.8977436,
  "lon": -60.5691275,
  "tags": {
    "addr:housenumber": "151",
    "addr:postcode": "2700",
    "addr:street": "Dorrego",
    "amenity": "clinic",
    "healthcare": "clinic",
    "name": "Centro Urológico Pergamino"
  }
},
{
  "type": "node",
  "id": 3018471850,
  "lat": -34.5925658,
  "lon": -58.5248147,
  "tags": {
    "addr:city": "Villa Lynch",
    "addr:country": "AR",
    "addr:full": "Calle 8 (Azcuenaga) 226 Entre 95 Y 97",
    "addr:housenumber": "4061",
    "addr:postcode": "B1672",
    "addr:province": "Buenos Aires",
    "addr:street": "8 - Miguel de Azcuénaga",
    "amenity": "clinic",
    "branch": "Villa Lynch",
    "healthcare": "clinic",
    "name": "Centro de Atención Primaria de la Salud n°13 Villa Lynch",
    "operator": "Municipalidad de San Martín",
    "operator:type": "government",
    "phone": "+54 11 4830 0709",
    "ref:sisa_codigo": "50063712202500",
    "ref:sisa_tipologia": "ESSIDT",
    "short_name": "CAPS n°13",
    "source": "https://mapa.sanmartin.gov.ar/#caps",
    "website": "http://www.sanmartin.gov.ar/servicios/salud/"
  }
},
{
  "type": "node",
  "id": 3034921982,
  "lat": -33.0077262,
  "lon": -68.9100164,
  "tags": {
    "addr:street": "Guardia Vieja",
    "amenity": "clinic",
    "healthcare": "clinic",
    "name": "Centro Dia - Progresar"
  }
},
{
  "type": "node",
  "id": 3034935675,
  "lat": -28.5063777,
  "lon": -59.0411085,
  "tags": {
    "addr:city": "Bella Vista",
    "addr:postcode": "3432",
    "addr:street": "Catamarca",
    "amenity": "clinic",
    "healthcare": "clinic",
    "name": "Clínica Bella Vista",
    "wikidata": "Q94604808"
  }
},
{
  "type": "node",
  "id": 3044667946,
  "lat": -37.9930305,
  "lon": -57.5552558,
  "tags": {
    "addr:city": "Mar del Plata",
    "addr:housenumber": "3542",
    "addr:street": "25 de Mayo",
    "amenity": "clinic",
    "email": "cl25demayo@clinica25demayo.com.ar",
    "healthcare": "clinic",
    "name": "Clínica 25 de Mayo",
    "phone": "+ 54 223 499-4000",
    "website": "https://www.clinica25demayo.com.ar/",
    "wheelchair": "yes"
  }
},
{
  "type": "node",
  "id": 3067609803,
  "lat": -27.4930892,
  "lon": -58.9394824,
  "tags": {
    "addr:city": "Barranqueras",
    "addr:full": "Avenida 9 De Julio 5400 Barrio Ucal",
    "addr:housenumber": "5400",
    "addr:postcode": "3503",
    "addr:street": "Avenida 9 de Julio",
    "amenity": "clinic",
    "healthcare": "clinic",
    "name": "Centro de Salud Villa Forestación",
    "operator": "Provincial",
    "operator:type": "public",
    "phone": "+54 3722 410111",
    "ref:sisa_codigo": "50221402126476",
    "ref:sisa_tipologia": "ESSIDT",
    "wikidata": "Q94580709"
  }
},
{
  "type": "node",
  "id": 3071074317,
  "lat": -33.0092172,
  "lon": -58.5201988,
  "tags": {
    "amenity": "clinic",
    "healthcare": "clinic"
  }
},
{
  "type": "node",
  "id": 3078945664,
  "lat": -34.6829838,
  "lon": -58.5753626,
  "tags": {
    "addr:full": "Montgolfier E/Santa Rosa Y Soldado Sosa 1939",
    "addr:postcode": "1757",
    "amenity": "clinic",
    "healthcare": "clinic",
    "name": "Unidad Sanitaria Padre Mario",
    "operator": "Municipal",
    "operator:type": "public",
    "phone": "011-4626-1258",
    "ref:sisa_codigo": "50064272202702",
    "ref:sisa_tipologia": "ESSIDT"
  }
},
{
  "type": "node",
  "id": 3080827428,
  "lat": -34.7024607,
  "lon": -58.5927428,
  "tags": {
    "amenity": "clinic",
    "healthcare": "clinic",
    "name": "Clinica Privada Isidro Casanova"
  }
},
{
  "type": "node",
  "id": 3085201362,
  "lat": -35.1846982,
  "lon": -57.9500897,
  "tags": {
    "amenity": "clinic",
    "healthcare": "clinic",
    "name": "Sala de Primeros Auxilios"
  }
},
{
  "type": "node",
  "id": 3116728077,
  "lat": -34.6214772,
  "lon": -58.4109461,
  "tags": {
    "amenity": "clinic",
    "name": "Centro de Promoción y Prevención PAMI"
  }
},
{
  "type": "node",
  "id": 3129830878,
  "lat": -31.7358696,
  "lon": -60.5322045,
  "tags": {
    "addr:housenumber": "1238",
    "addr:street": "San Martín",
    "amenity": "clinic",
    "healthcare": "clinic",
    "name": "Clínica Modelo",
    "opening_hours": "24/7",
    "phone": "(0343) 423-1200",
    "wikidata": "Q94691023"
  }
},
{
  "type": "node",
  "id": 3129830883,
  "lat": -31.7240188,
  "lon": -60.5282072,
  "tags": {
    "addr:city": "Paraná",
    "addr:housenumber": "550",
    "addr:postcode": "3100",
    "addr:street": "Buenos Aires",
    "amenity": "clinic",
    "healthcare": "clinic",
    "name": "Sanatorio La Entrerriana",
    "phone": "(0343) 420-0500",
    "wikidata": "Q94691274"
  }
},
{
  "type": "node",
  "id": 3134454350,
  "lat": -27.4968708,
  "lon": -58.9548758,
  "tags": {
    "amenity": "clinic",
    "name": "Centro de Salud Ramón Carrillo"
  }
},
{
  "type": "node",
  "id": 3141220540,
  "lat": -27.3654487,
  "lon": -55.9496888,
  "tags": {
    "amenity": "clinic",
    "name": "Centro Médico Presidente Néstor Kirchner"
  }
},
{
  "type": "node",
  "id": 3144495060,
  "lat": -34.6398413,
  "lon": -58.3542783,
  "tags": {
    "addr:full": "Jose Maria Montaña 172 E/Espejo Y Frias",
    "addr:housenumber": "172",
    "addr:postcode": "1870",
    "addr:street": "José María Montaña",
    "alt_name": "Salita del Doctor Ferrero",
    "amenity": "clinic",
    "healthcare": "clinic",
    "name": "Unidad Sanitaria 9 De Avellaneda",
    "operator": "Municipal",
    "operator:type": "public",
    "phone": "4205-9634",
    "ref:sisa_codigo": "50060352202674",
    "ref:sisa_tipologia": "ESSIDT"
  }
},
{
  "type": "node",
  "id": 3149539477,
  "lat": -37.9665818,
  "lon": -57.5510901,
  "tags": {
    "amenity": "clinic",
    "healthcare": "clinic",
    "name": "COPETEL"
  }
},
{
  "type": "node",
  "id": 3165121661,
  "lat": -32.8965225,
  "lon": -68.8567205,
  "tags": {
    "addr:street": "Martínez de Rozas",
    "amenity": "clinic",
    "healthcare": "clinic",
    "name": "Centro de Hipertensión Arterial",
    "operator": "Fundación Hector Nolly"
  }
},
{
  "type": "node",
  "id": 3166987010,
  "lat": -32.1399868,
  "lon": -64.5044095,
  "tags": {
    "amenity": "clinic",
    "healthcare": "clinic",
    "name": "Sala de Salud"
  }
},
{
  "type": "node",
  "id": 3169086672,
  "lat": -33.5775764,
  "lon": -69.0158652,
  "tags": {
    "amenity": "clinic",
    "healthcare": "clinic",
    "name": "MediUCO"
  }
},
{
  "type": "node",
  "id": 3170973406,
  "lat": -30.8599666,
  "lon": -64.5263064,
  "tags": {
    "amenity": "clinic",
    "healthcare": "clinic",
    "name": "Policlínica La Cañada"
  }
},
{
  "type": "node",
  "id": 3172499971,
  "lat": -37.9600868,
  "lon": -57.5638180,
  "tags": {
    "amenity": "clinic",
    "healthcare": "clinic",
    "name": "Policlinica Constitución"
  }
},
{
  "type": "node",
  "id": 3173795679,
  "lat": -27.4772747,
  "lon": -59.0520137,
  "tags": {
    "amenity": "clinic",
    "healthcare": "clinic",
    "name": "Centro de Salud Gringo Pinto",
    "operator": "Provincia del Chaco",
    "operator:type": "public",
    "ref:sisa_codigo": "50221402127282",
    "ref:sisa_tipologia": "ESSIDT"
  }
},
{
  "type": "node",
  "id": 3185479066,
  "lat": -27.4814698,
  "lon": -58.9252695,
  "tags": {
    "addr:city": "Barranqueras",
    "addr:full": "Gabardini Y Fray Mocho",
    "addr:postcode": "3503",
    "addr:street": "Rodolfo Gabardini",
    "amenity": "clinic",
    "healthcare": "clinic",
    "name": "Centro De Salud Mental La Lomita",
    "operator": "Provincial",
    "operator:type": "public",
    "phone": "+54 3722 488606",
    "ref:sisa_codigo": "50221402126684",
    "ref:sisa_tipologia": "ESSIDT",
    "wikidata": "Q94580515"
  }
},
{
  "type": "node",
  "id": 3189098428,
  "lat": -27.3566433,
  "lon": -55.9376215,
  "tags": {
    "addr:city": "Posadas",
    "addr:country": "AR",
    "addr:housenumber": "6411",
    "addr:street": "Avenida Urquiza",
    "amenity": "clinic",
    "name": "Posta de Salud Chacra 193"
  }
},
{
  "type": "node",
  "id": 3189132517,
  "lat": -27.3665012,
  "lon": -55.8996009,
  "tags": {
    "addr:housenumber": "2377",
    "addr:street": "Bolívar",
    "amenity": "clinic",
    "emergency": "no",
    "healthcare": "clinic",
    "name": "Instituto Gema",
    "operator": "Instituto GEMA SRL",
    "phone": "+54 376 4434821"
  }
},
{
  "type": "node",
  "id": 3189272947,
  "lat": -27.3852944,
  "lon": -55.9243447,
  "tags": {
    "addr:housenumber": "4214",
    "addr:street": "Avenida Chacabuco",
    "amenity": "clinic",
    "name": "Puesto de Salud Sol Naciente"
  }
},
{
  "type": "node",
  "id": 3189308926,
  "lat": -27.4029129,
  "lon": -55.8999906,
  "tags": {
    "addr:housenumber": "1928",
    "addr:street": "Cuerpo de Blandengues",
    "amenity": "clinic",
    "healthcare": "clinic",
    "name": "Puesto de Salud Chacra 29"
  }
},
{
  "type": "node",
  "id": 3192181322,
  "lat": -34.5942175,
  "lon": -58.3859427,
  "tags": {
    "addr:city": "Ciudad Autónoma de Buenos Aires",
    "addr:country": "AR",
    "addr:housenumber": "1234",
    "addr:street": "Talcahuano",
    "amenity": "clinic",
    "healthcare": "clinic",
    "name": "Centro de Educación Médica e Investigaciones Clínicas",
    "short_name": "CEMIC"
  }
},
{
  "type": "node",
  "id": 3202829440,
  "lat": -27.3946652,
  "lon": -55.8960300,
  "tags": {
    "addr:city": "Posadas",
    "addr:country": "AR",
    "addr:housenumber": "1648",
    "addr:postcode": "3300",
    "addr:province": "Misiones",
    "addr:street": "Avenida Comandante Rosales",
    "amenity": "clinic",
    "description": "Centro de diagnóstico, tratamiento y recuperación de las adicciones",
    "healthcare": "clinic",
    "name": "Centro Monoclínico Manantial",
    "operator": "Dirección de Asistencia y Prevención de las Adicciones de la Subsecretaria de Prevención de las Adicciones y Control de Drogas del Ministerio de Salud Publica",
    "phone": "+54 376 445 6759",
    "ref:ZonaSanitaria": "Capital",
    "ref:cuie_codigo": "N99992",
    "ref:sisa_codigo": "53540282165716",
    "ref:sisa_tipologia": "ESCIESM"
  }
},
{
  "type": "node",
  "id": 3211711134,
  "lat": -31.0211153,
  "lon": -64.0621478,
  "tags": {
    "amenity": "clinic",
    "emergency": "yes",
    "healthcare": "clinic",
    "ref": "Servicio de Urgencias Médicas"
  }
},
{
  "type": "node",
  "id": 3214743915,
  "lat": -27.4304776,
  "lon": -55.8867255,
  "tags": {
    "addr:housenumber": "2026",
    "addr:street": "Puerto Argentino",
    "amenity": "clinic",
    "emergency": "no",
    "name": "Sanatorio San Miguel",
    "phone": "+54 376 442-2343"
  }
},
{
  "type": "node",
  "id": 3225839419,
  "lat": -34.7789501,
  "lon": -58.4798495,
  "tags": {
    "addr:housenumber": "3540",
    "addr:postcode": "B1839HBP",
    "addr:street": "Eduardo Prayones",
    "amenity": "clinic",
    "healthcare": "clinic",
    "name": "Unidad Sanitaria 5 San Francisco",
    "operator": "Municipal",
    "operator:type": "public",
    "phone": "+54 11 4272-0946",
    "ref:sisa_codigo": "50062602202631",
    "ref:sisa_tipologia": "ESSIDT"
  }
},
{
  "type": "node",
  "id": 3225839420,
  "lat": -34.7821093,
  "lon": -58.4899176,
  "tags": {
    "addr:housenumber": "3809",
    "addr:postcode": "1776",
    "addr:street": "Avenida Luis Vernet",
    "amenity": "clinic",
    "contact:phone": "+54 11 4272-2495",
    "healthcare": "clinic",
    "name": "Unidad Sanitaria 10 El Zalzar",
    "operator": "Municipal",
    "operator:type": "public",
    "ref:sisa_codigo": "50062602202477",
    "ref:sisa_tipologia": "ESSIDT"
  }
},
{
  "type": "node",
  "id": 3225839421,
  "lat": -34.7954695,
  "lon": -58.4851666,
  "tags": {
    "addr:housenumber": "50",
    "addr:postcode": "1842",
    "addr:street": "Antonio Rivero",
    "amenity": "clinic",
    "healthcare": "clinic",
    "name": "Unidad Sanitaria 15 Santa Rita",
    "operator": "Municipal",
    "operator:type": "public",
    "phone": "+54 11 4296-4141",
    "ref:sisa_codigo": "50062602202515",
    "ref:sisa_tipologia": "ESSIDT"
  }
},
{
  "type": "node",
  "id": 3225839424,
  "lat": -34.7898970,
  "lon": -58.4629590,
  "tags": {
    "addr:housenumber": "1408",
    "addr:postcode": "B1838EGD",
    "addr:street": "Nicaragua",
    "amenity": "clinic",
    "healthcare": "clinic",
    "name": "Unidad Sanitaria 13 Santa Catalina",
    "operator": "Municipal",
    "operator:type": "public",
    "phone": "+54 11 4272-9539",
    "ref:sisa_codigo": "50062602202502",
    "ref:sisa_tipologia": "ESSIDT"
  }
},
{
  "type": "node",
  "id": 3225839429,
  "lat": -34.8177313,
  "lon": -58.4913096,
  "tags": {
    "addr:housenumber": "1379",
    "addr:postcode": "1842",
    "addr:street": "12 de Octubre",
    "amenity": "clinic",
    "healthcare": "clinic",
    "name": "Unidad Sanitaria 2",
    "operator": "Municipal",
    "operator:type": "public",
    "phone": "+54 11 4296-4218",
    "ref:sisa_codigo": "50062602202548",
    "ref:sisa_tipologia": "ESSIDT"
  }
},
{
  "type": "node",
  "id": 3225839442,
  "lat": -34.8149241,
  "lon": -58.4367728,
  "tags": {
    "addr:full": "Juan De Garay 1940",
    "addr:postcode": "1838",
    "amenity": "clinic",
    "contact:phone": "+54 11 4290-3727",
    "healthcare": "clinic",
    "name": "Unidad Sanitaria 12",
    "operator": "Municipal",
    "operator:type": "public",
    "ref:sisa_codigo": "50062602202491",
    "ref:sisa_tipologia": "ESSIDT"
  }
},
{
  "type": "node",
  "id": 3225839450,
  "lat": -34.8399973,
  "lon": -58.4650496,
  "tags": {
    "addr:housenumber": "810",
    "addr:postcode": "1842",
    "addr:street": "Catalina Berardi de Battipede",
    "amenity": "clinic",
    "healthcare": "clinic",
    "name": "Unidad Sanitaria 17 Villa Inmaculada",
    "operator": "Municipal",
    "operator:type": "public",
    "phone": "+54 11 4396-0215",
    "ref:sisa_codigo": "50062602202531",
    "ref:sisa_tipologia": "ESSIDT"
  }
},
{
  "type": "node",
  "id": 3225839451,
  "lat": -34.8426847,
  "lon": -58.4882659,
  "tags": {
    "addr:housenumber": "2850",
    "addr:postcode": "1842",
    "addr:street": "Doctor Manuel Julián Medel",
    "amenity": "clinic",
    "contact:phone": "+54 11 4232-7724",
    "healthcare": "clinic",
    "name": "Unidad Sanitaria 3 El Jaguel",
    "operator": "Municipal",
    "operator:type": "public",
    "ref:sisa_codigo": "50062602202591",
    "ref:sisa_tipologia": "ESSIDT"
  }
},
{
  "type": "node",
  "id": 3225839458,
  "lat": -34.8572343,
  "lon": -58.4979837,
  "tags": {
    "addr:housenumber": "2137",
    "addr:postcode": "1804",
    "addr:street": "Miguel Ángel",
    "amenity": "clinic",
    "healthcare": "clinic",
    "name": "Unidad Sanitaria 7 Las Flores",
    "operator": "Municipal",
    "operator:type": "public",
    "phone": "+54 11 4232-9585",
    "ref:sisa_codigo": "50062602202397",
    "ref:sisa_tipologia": "ESSIDT"
  }
},
{
  "type": "node",
  "id": 3225846286,
  "lat": -34.8200194,
  "lon": -58.5039592,
  "tags": {
    "addr:housenumber": "2665",
    "addr:postcode": "1842",
    "addr:street": "Domingo Matheu",
    "amenity": "clinic",
    "healthcare": "clinic",
    "name": "Unidad Sanitaria 9 San Ignacio",
    "operator": "Municipal",
    "operator:type": "public",
    "phone": "+54 11 4232-5210",
    "ref:sisa_codigo": "50062602202684",
    "ref:sisa_tipologia": "ESSIDT"
  }
},
{
  "type": "node",
  "id": 3225846288,
  "lat": -34.8125522,
  "lon": -58.5047041,
  "tags": {
    "addr:housenumber": "1460",
    "addr:postcode": "1842",
    "addr:street": "Pedro Gandulfo",
    "amenity": "clinic",
    "healthcare": "clinic",
    "name": "Unidad Sanitaria 14 Montana",
    "operator": "Municipal",
    "operator:type": "public",
    "phone": "+54 11 4272-7722",
    "ref:sisa_codigo": "50062602202510",
    "ref:sisa_tipologia": "ESSIDT"
  }
},
{
  "type": "node",
  "id": 3225859639,
  "lat": -34.8527701,
  "lon": -58.4781064,
  "tags": {
    "addr:housenumber": "2442",
    "addr:postcode": "1842",
    "addr:street": "Pablo Pizzurno",
    "amenity": "clinic",
    "healthcare": "clinic",
    "name": "Unidad Sanitaria 8",
    "operator": "Municipal",
    "operator:type": "public",
    "phone": "+54 11 4235-0551",
    "ref:sisa_codigo": "50062602202665",
    "ref:sisa_tipologia": "ESSIDT"
  }
},
{
  "type": "node",
  "id": 3228321672,
  "lat": -32.2038632,
  "lon": -64.4008550,
  "tags": {
    "amenity": "clinic",
    "healthcare": "clinic",
    "name": "CLINICA"
  }
},
{
  "type": "node",
  "id": 3238656389,
  "lat": -27.4704400,
  "lon": -58.9345213,
  "tags": {
    "addr:city": "Barranqueras",
    "addr:housenumber": "4560",
    "addr:postcode": "3503",
    "addr:street": "Pasteur",
    "amenity": "clinic",
    "healthcare": "clinic",
    "name": "Centro de Salud Villa Hortensia",
    "operator": "Provincial",
    "operator:type": "public",
    "phone": "+54 362 4488612",
    "ref:sisa_codigo": "50221402126479",
    "ref:sisa_tipologia": "ESSIDT",
    "wikidata": "Q94580715"
  }
},
{
  "type": "node",
  "id": 3247969967,
  "lat": -27.0901475,
  "lon": -61.0782105,
  "tags": {
    "amenity": "clinic",
    "healthcare": "clinic",
    "name": "Axis Salud"
  }
},
{
  "type": "node",
  "id": 3251050627,
  "lat": -38.9508193,
  "lon": -68.2275746,
  "tags": {
    "addr:street": "Chos Malal",
    "amenity": "clinic",
    "healthcare": "clinic"
  }
},
{
  "type": "node",
  "id": 3251050629,
  "lat": -38.9559124,
  "lon": -68.2295671,
  "tags": {
    "addr:housenumber": "200",
    "addr:street": "Libertad",
    "amenity": "clinic",
    "healthcare": "clinic",
    "name": "Clínica Trinidad",
    "phone": "54 0299 4938545"
  }
},
{
  "type": "node",
  "id": 3255820717,
  "lat": -30.8657002,
  "lon": -61.3494520,
  "tags": {
    "addr:city": "Humberto Primo",
    "addr:housenumber": "154",
    "addr:postcode": "S2309",
    "addr:street": "Sara B. De Samyn Oeste",
    "amenity": "clinic",
    "healthcare": "clinic",
    "name": "San Patricio"
  }
},
{
  "type": "node",
  "id": 3277919351,
  "lat": -33.0929355,
  "lon": -64.2899208,
  "tags": {
    "addr:full": "Pje. Bulnes 157",
    "addr:postcode": "5805",
    "amenity": "clinic",
    "building": "yes",
    "emergency": "yes",
    "healthcare": "clinic",
    "name": "Centro De Salud Juan Cortona",
    "operator": "Municipal",
    "operator:type": "public",
    "phone": "(0358) 497-0006",
    "ref:sisa_codigo": "50140982231664",
    "ref:sisa_tipologia": "ESSIDT"
  }
},
{
  "type": "node",
  "id": 3304312164,
  "lat": -26.8199991,
  "lon": -65.1974062,
  "tags": {
    "amenity": "clinic",
    "healthcare": "clinic",
    "name": "Requena Serra",
    "opening_hours": "08:00-12:00,18:00-21:00"
  }
},
{
  "type": "node",
  "id": 3305022803,
  "lat": -27.4122513,
  "lon": -59.0483031,
  "tags": {
    "addr:city": "Fontana",
    "addr:full": "Avenida Alvear 4000",
    "addr:postcode": "3514",
    "addr:street": "Diagonal Marqués de Aguado",
    "alt_name": "Centro De Salud Rio Araza Puerto Vicentini",
    "amenity": "clinic",
    "healthcare": "clinic",
    "name": "Centro de Salud Río Arazá",
    "operator": "Provincial",
    "operator:type": "public",
    "phone": "+54 362 4468557",
    "ref:sisa_codigo": "50221402126432",
    "ref:sisa_tipologia": "ESSIDT"
  }
},
{
  "type": "node",
  "id": 3312499723,
  "lat": -32.7590302,
  "lon": -63.7894309,
  "tags": {
    "addr:city": "General Deheza",
    "addr:postcode": "5923",
    "addr:street": "Saavedra",
    "amenity": "clinic",
    "healthcare": "clinic",
    "name": "Clínica Privada General Deheza"
  }
},
{
  "type": "node",
  "id": 3314365377,
  "lat": -34.6265205,
  "lon": -60.9389407,
  "tags": {
    "amenity": "clinic",
    "healthcare": "clinic",
    "name": "Clinica Rehabilitación Junin"
  }
},
{
  "type": "node",
  "id": 3328375540,
  "lat": -34.9105613,
  "lon": -57.9562842,
  "tags": {
    "addr:housenumber": "66",
    "addr:street": "Plaza Italia",
    "amenity": "clinic",
    "healthcare": "clinic",
    "name": "Clinica April Rehab Infantil 66"
  }
},
{
  "type": "node",
  "id": 3328375541,
  "lat": -34.9093700,
  "lon": -57.9577816,
  "tags": {
    "addr:housenumber": "612",
    "addr:street": "Calle 42",
    "amenity": "clinic",
    "healthcare": "clinic",
    "name": "Clinica La Plata - Oncología"
  }
},
{
  "type": "node",
  "id": 3328375542,
  "lat": -34.9093869,
  "lon": -57.9573781,
  "tags": {
    "addr:housenumber": "507",
    "addr:street": "Avenida 7",
    "amenity": "clinic",
    "healthcare": "clinic",
    "name": "Clinica La Plata"
  }
},
{
  "type": "node",
  "id": 3330275899,
  "lat": -34.9187137,
  "lon": -57.9478345,
  "tags": {
    "addr:street": "Calle 55",
    "amenity": "clinic",
    "healthcare": "clinic",
    "name": "Clinica"
  }
},
{
  "type": "node",
  "id": 3335193873,
  "lat": -46.4518178,
  "lon": -67.5208195,
  "tags": {
    "amenity": "clinic",
    "healthcare": "clinic",
    "name": "Centro Médico Güemes"
  }
},
{
  "type": "node",
  "id": 3342043735,
  "lat": -34.6536830,
  "lon": -59.4330007,
  "tags": {
    "amenity": "clinic",
    "healthcare": "clinic",
    "name": "Clínica Cruz Azul",
    "phone": "+542324427034",
    "wheelchair": "yes"
  }
},
{
  "type": "node",
  "id": 3356381313,
  "lat": -34.3730646,
  "lon": -58.8680128,
  "tags": {
    "addr:city": "Zelaya",
    "addr:postcode": "1627",
    "addr:street": "Silvio González",
    "amenity": "clinic",
    "healthcare": "clinic",
    "name": "Sala de Primeros Auxilios Manuel Gurmendi",
    "operator": "Municipalidad del Pilar"
  }
},
{
  "type": "node",
  "id": 3358913327,
  "lat": -32.0737259,
  "lon": -60.4627179,
  "tags": {
    "amenity": "clinic",
    "healthcare": "clinic",
    "name": "Sanatorio Adventista del Plata",
    "opening_hours": "Su-Fr 07:00-20:00",
    "phone": "3434200220",
    "wikidata": "Q94691268"
  }
},
{
  "type": "node",
  "id": 3358999439,
  "lat": -27.5167409,
  "lon": -58.9381478,
  "tags": {
    "addr:city": "Puerto Vilelas",
    "addr:full": "Irigoyen Y 20 De Junio",
    "addr:postcode": "3503",
    "addr:street": "Hipólito Yrigoyen",
    "alt_name": "Centro De Salud Enrique Finochietto",
    "amenity": "clinic",
    "healthcare": "clinic",
    "healthcare:speciality": "obstetrics;nutrition;dentist;pediatric;kinesitherapy;clinical_laboratory",
    "name": "Centro de Salud Doctor Finocchieto",
    "opening_hours": "Mo-Fr 07:00-20:00; Sa 08:00-12:00",
    "operator": "Provincial",
    "operator:type": "public",
    "phone": "+54 362 4488605",
    "ref:sisa_codigo": "50221402126253",
    "ref:sisa_tipologia": "ESSIDT",
    "wikidata": "Q94580333"
  }
},
{
  "type": "node",
  "id": 3360275123,
  "lat": -34.8402364,
  "lon": -58.2323403,
  "tags": {
    "addr:full": "Iberia 359 Entre Pico Truncado Y Brochero - Barrio Villa Hudson",
    "addr:postcode": "1888",
    "amenity": "clinic",
    "healthcare": "clinic",
    "name": "Unidad Sanitaria Doctor Evaristo Rodriguez - Villa Hudson",
    "operator": "Municipal",
    "operator:type": "public",
    "phone": "(011) 4213-9318",
    "ref:sisa_codigo": "50062742202226",
    "ref:sisa_tipologia": "ESSIDT"
  }
},
{
  "type": "node",
  "id": 3372715190,
  "lat": -34.8478334,
  "lon": -58.5100338,
  "tags": {
    "addr:city": "Ezeiza",
    "addr:full": "Esquina Senadora Prov. Josefina Moscoso de Herrera.  Entre San Juan  y De Vedia",
    "addr:housenumber": "163",
    "addr:postcode": "1804",
    "addr:street": "Giribone",
    "alt_name": "Centro De Salud 2",
    "amenity": "clinic",
    "healthcare": "clinic",
    "name": "Unidad Sanitaria Nº 2",
    "operator": "Municipal",
    "operator:type": "public",
    "phone": "+54 11 4232-9528",
    "ref:sisa_codigo": "50062702202552",
    "ref:sisa_tipologia": "ESSIDT",
    "source": "https://www.ezeiza.gob.ar/salud-centros.html"
  }
},
{
  "type": "node",
  "id": 3379032326,
  "lat": -31.0939848,
  "lon": -64.4837089,
  "tags": {
    "amenity": "clinic",
    "healthcare": "clinic",
    "name": "Clínica la Falda"
  }
},
{
  "type": "node",
  "id": 3379113980,
  "lat": -31.0478841,
  "lon": -64.4879353,
  "tags": {
    "addr:city": "Villa Giardino",
    "amenity": "clinic",
    "healthcare": "clinic",
    "name": "Sala Primeros Auxilios"
  }
},
{
  "type": "node",
  "id": 3380165212,
  "lat": -31.2454478,
  "lon": -64.4652500,
  "tags": {
    "addr:street": "Pedro Ortíz y Tucumán",
    "amenity": "clinic",
    "healthcare": "clinic",
    "name": "Clínica San Antonio",
    "opening_hours": "24/7"
  }
},
{
  "type": "node",
  "id": 3380165217,
  "lat": -31.2433252,
  "lon": -64.4641667,
  "tags": {
    "addr:city": "Cosquín",
    "addr:postcode": "5166",
    "addr:street": "Sarmiento 540",
    "amenity": "clinic",
    "healthcare": "clinic",
    "name": "Clínica Privada Sarmiento"
  }
},
{
  "type": "node",
  "id": 3380259274,
  "lat": -31.2377313,
  "lon": -64.4669874,
  "tags": {
    "addr:street": "Palemón Carranza y Obispo Bustos",
    "amenity": "clinic",
    "healthcare": "clinic",
    "name": "Centro de Salud - CREMED",
    "opening_hours": "24/7"
  }
},
{
  "type": "node",
  "id": 3382235144,
  "lat": -31.7181899,
  "lon": -65.0088422,
  "tags": {
    "amenity": "clinic",
    "healthcare": "clinic",
    "name": "Clinica C.L.E.Mi.C. Salud"
  }
},
{
  "type": "node",
  "id": 3383836096,
  "lat": -31.7084037,
  "lon": -65.0219869,
  "tags": {
    "amenity": "clinic",
    "healthcare": "clinic",
    "name": "Dispensario"
  }
},
{
  "type": "node",
  "id": 3392691419,
  "lat": -32.8895396,
  "lon": -68.8304674,
  "tags": {
    "addr:housenumber": "1260",
    "addr:street": "Pedro B. Palacios",
    "amenity": "clinic",
    "healthcare": "clinic",
    "name": "Clinica Sananes",
    "phone": "54 0261 4257319",
    "website": "http://www.clinicasananes.com",
    "wikidata": "Q100998394"
  }
},
{
  "type": "node",
  "id": 3401080778,
  "lat": -26.5662089,
  "lon": -54.7654267,
  "tags": {
    "addr:city": "Montecarlo",
    "addr:housenumber": "80",
    "addr:postcode": "3384",
    "addr:street": "Chacabuco",
    "amenity": "clinic",
    "healthcare": "clinic",
    "name": "Sanatorio Montecarlo",
    "phone": "+54 3751 480124",
    "website": "https://www.doctoraliar.com/centro-medico/sanatorio+montecarlo-1352619"
  }
},
{
  "type": "node",
  "id": 3407995744,
  "lat": -43.2570237,
  "lon": -65.2939550,
  "tags": {
    "amenity": "clinic",
    "healthcare": "clinic",
    "name": "consultorios Andamiaje"
  }
},
{
  "type": "node",
  "id": 3430905799,
  "lat": -34.7529165,
  "lon": -58.4007641,
  "tags": {
    "addr:housenumber": "8366",
    "addr:street": "Avenida Hipólito Yrigoyen",
    "amenity": "clinic",
    "healthcare": "clinic",
    "name": "Centro Médico LEBBYAC",
    "note": "LEBBYAC es el laboratorio de alta complejidad de Lomas de Zamora, con proceso totalmente automatizado. En el primer piso se encuentra el Centro Médico.",
    "opening_hours": "Mo-Fr 7:30-20:00;Sa 8:00-12:00",
    "phone": "+54 11 4244-9606",
    "website": "http://www.lebbyac.com",
    "wheelchair": "yes"
  }
},
{
  "type": "node",
  "id": 3445710049,
  "lat": -26.7236592,
  "lon": -65.2573400,
  "tags": {
    "amenity": "clinic",
    "healthcare": "clinic",
    "name": "Caps Santa Rosa"
  }
},
{
  "type": "node",
  "id": 3450557530,
  "lat": -34.3512093,
  "lon": -58.8178954,
  "tags": {
    "addr:city": "Belén de Escobar",
    "addr:full": "Las Orquídeas Y Junquillo",
    "addr:postcode": "1625",
    "addr:street": "Los Junquillos",
    "alt_name": "Centro De Salud Periferico Carlos Menem Hijo",
    "amenity": "clinic",
    "emergency": "yes",
    "healthcare": "clinic",
    "name": "CAPS Carlos Menem",
    "operator": "Municipal",
    "operator:type": "public",
    "phone": "+54-348-4430599",
    "ref:sisa_codigo": "50062522201339",
    "ref:sisa_tipologia": "ESSIDT"
  }
},
{
  "type": "node",
  "id": 3450609965,
  "lat": -34.3413337,
  "lon": -58.7999375,
  "tags": {
    "addr:city": "Belén de Escobar",
    "addr:full": "Corrientes 512",
    "addr:housenumber": "512",
    "addr:postcode": "1625",
    "addr:street": "Corrientes",
    "amenity": "clinic",
    "healthcare": "clinic",
    "name": "Centro Materno Infantil Audelina Zambrano",
    "operator": "Municipal",
    "operator:type": "public",
    "phone": "3488 430530",
    "ref:sisa_codigo": "50062522201266",
    "ref:sisa_tipologia": "ESSIDT"
  }
},
{
  "type": "node",
  "id": 3454904156,
  "lat": -33.0366089,
  "lon": -60.6542634,
  "tags": {
    "addr:city": "Villa Gobernador Gálvez",
    "addr:housenumber": "3042",
    "addr:postcode": "S2124",
    "addr:street": "Suipacha",
    "amenity": "clinic",
    "contact:phone": "+54 341 492-0344",
    "healthcare": "clinic",
    "name": "Centro de Salud San Martín",
    "operator": "Municipalidad de Villa Gobernador Gálvez",
    "operator:type": "public",
    "ref:sisa_codigo": "50820842284954",
    "ref:sisa_tipologia": "ESSIDT",
    "wikidata": "Q97672633"
  }
},
{
  "type": "node",
  "id": 3456760442,
  "lat": -34.7933662,
  "lon": -58.3046405,
  "tags": {
    "addr:full": "Calle 864 E/899 Y 898",
    "addr:postcode": "1881",
    "amenity": "clinic",
    "healthcare": "clinic",
    "name": "Unidad Sanitaria Los Eucaliptos",
    "operator": "Municipal",
    "operator:type": "public",
    "ref:sisa_codigo": "50060582202421",
    "ref:sisa_tipologia": "ESSIDT"
  }
},
{
  "type": "node",
  "id": 3458097203,
  "lat": -34.9060636,
  "lon": -58.3952501,
  "tags": {
    "addr:full": "Bonifacio Y Franklin S/N Bo. Gorriti - Glew",
    "addr:postcode": "1856",
    "amenity": "clinic",
    "healthcare": "clinic",
    "name": "Unidad Sanitaria Glew I",
    "operator": "Municipal",
    "operator:type": "public",
    "phone": "+54 2224 423219",
    "ref:sisa_codigo": "50060282202312",
    "ref:sisa_tipologia": "ESSIDT"
  }
},
{
  "type": "node",
  "id": 3458654493,
  "lat": -26.9230068,
  "lon": -60.0502082,
  "tags": {
    "amenity": "clinic",
    "healthcare": "clinic",
    "name": "Clínica Santa Rita"
  }
},
{
  "type": "node",
  "id": 3473151351,
  "lat": -34.7033668,
  "lon": -58.3826799,
  "tags": {
    "addr:city": "Lanús",
    "addr:full": "Coronel Pringles 1257",
    "addr:housenumber": "1257",
    "addr:postcode": "1824",
    "addr:street": "Coronel Pringles",
    "amenity": "clinic",
    "healthcare": "clinic",
    "name": "Hospital Zonal Especializado en Oncologia de Lanús",
    "operator": "Provincial",
    "operator:type": "public",
    "phone": "+54 11 42474376",
    "ref:sisa_codigo": "14064342100665",
    "ref:sisa_tipologia": "ESCIE"
  }
},
{
  "type": "node",
  "id": 3475953953,
  "lat": -34.9210135,
  "lon": -58.5961385,
  "tags": {
    "addr:city": "Carlos Spegazzini",
    "addr:full": "Riachuelo E Italia Carlos Spegazzini",
    "addr:housenumber": "611",
    "addr:postcode": "1812",
    "addr:street": "Riachuelo",
    "alt_name": "Centro De Salud 7",
    "amenity": "clinic",
    "description": "Entre Italia Sargento Cabral",
    "healthcare": "clinic",
    "name": "Unidad Sanitaria 7",
    "operator": "Municipal",
    "operator:type": "public",
    "phone": "+54 2274 43-0460",
    "ref:sisa_codigo": "50062702201331",
    "ref:sisa_tipologia": "ESSIDT"
  }
},
{
  "type": "node",
  "id": 3475953954,
  "lat": -34.9181716,
  "lon": -58.6114781,
  "tags": {
    "addr:city": "Carlos Spegazzini",
    "addr:full": "San Salvador De Jujuy S/N°",
    "addr:housenumber": "650",
    "addr:postcode": "1806",
    "addr:street": "San Salvador de Jujuy",
    "alt_name": "Centro De Salud 8",
    "amenity": "clinic",
    "description": "Entre Graham Bell y Bouchard",
    "healthcare": "clinic",
    "name": "Unidad Sanitaria Nº 8",
    "operator": "Municipal",
    "operator:type": "public",
    "phone": "+54 2274 45-0023",
    "ref:sisa_codigo": "50062702202664",
    "ref:sisa_tipologia": "ESSIDT"
  }
},
{
  "type": "node",
  "id": 3475953955,
  "lat": -34.9087055,
  "lon": -58.5939045,
  "tags": {
    "addr:city": "Carlos Spegazzini",
    "addr:full": "Pitagoras 621",
    "addr:housenumber": "621",
    "addr:postcode": "1812",
    "addr:street": "Pitágoras",
    "alt_name": "Unidad Sanitaria 15",
    "amenity": "clinic",
    "description": "Entre Tales de Mileto J. Thompson",
    "healthcare": "clinic",
    "name": "Unidad Sanitaria 15",
    "operator": "Municipal",
    "operator:type": "public",
    "phone": "+54 2274 43-0939;+54 11 4386 0801",
    "ref:sisa_codigo": "50062702215028",
    "ref:sisa_tipologia": "ESSIDT"
  }
},
{
  "type": "node",
  "id": 3522097539,
  "lat": -45.8373734,
  "lon": -67.4762016,
  "tags": {
    "addr:city": "Comodoro Rivadavia",
    "addr:housenumber": "651",
    "addr:postcode": "9000",
    "addr:street": "Avenida del Libertador General San Martín",
    "air_conditioning": "yes",
    "amenity": "clinic",
    "email": "info@centromedicoatlantico.com",
    "emergency": "no",
    "healthcare": "clinic",
    "healthcare:speciality": "general;radiology;gastroenterology;internist",
    "name": "Centro Médico Atlántico",
    "opening_hours": "Mo-Fr 10:00-18:00",
    "payment:cash": "yes",
    "payment:visa_debit": "yes",
    "wheelchair": "limited"
  }
},
{
  "type": "node",
  "id": 3524703603,
  "lat": -31.5434444,
  "lon": -68.5196688,
  "tags": {
    "amenity": "clinic",
    "healthcare": "clinic",
    "name": "Consultorios Externos Sanatorio San Juan",
    "opening_hours": "08:00-20:00"
  }
},
{
  "type": "node",
  "id": 3545091494,
  "lat": -31.0064625,
  "lon": -64.0794570,
  "tags": {
    "amenity": "clinic",
    "healthcare": "clinic",
    "name": "Sanatorio Caroya"
  }
},
{
  "type": "node",
  "id": 3545593754,
  "lat": -30.9803147,
  "lon": -64.0919013,
  "tags": {
    "amenity": "clinic",
    "healthcare": "clinic",
    "name": "CEDIAN"
  }
},
{
  "type": "node",
  "id": 3545593755,
  "lat": -30.9805354,
  "lon": -64.0915374,
  "tags": {
    "amenity": "clinic",
    "healthcare": "clinic",
    "name": "Centro Médico Privado"
  }
},
{
  "type": "node",
  "id": 3545593756,
  "lat": -30.9765157,
  "lon": -64.0949895,
  "tags": {
    "amenity": "clinic",
    "healthcare": "clinic",
    "name": "Centro de Atencion Sanatorio Caroya SRL"
  }
},
{
  "type": "node",
  "id": 3545593758,
  "lat": -30.9796156,
  "lon": -64.0974310,
  "tags": {
    "amenity": "clinic",
    "healthcare": "clinic",
    "name": "Crecer Centro Integral de Salud"
  }
},
{
  "type": "node",
  "id": 3554430458,
  "lat": -32.8836211,
  "lon": -68.8400660,
  "tags": {
    "addr:city": "Mendoza",
    "addr:housenumber": "187",
    "addr:postcode": "5500",
    "addr:street": "Avenida Godoy Cruz",
    "amenity": "clinic",
    "healthcare": "clinic",
    "name": "Centro de Medicina Preventiva Doctor Emilio Coni",
    "phone": "54 0261 4251124"
  }
},
{
  "type": "node",
  "id": 3566165136,
  "lat": -31.0100317,
  "lon": -64.1144045,
  "tags": {
    "amenity": "clinic",
    "healthcare": "clinic",
    "name": "Centro de Salud"
  }
},
{
  "type": "node",
  "id": 3575791288,
  "lat": -34.5883337,
  "lon": -58.4063704,
  "tags": {
    "addr:city": "Ciudad Autónoma de Buenos Aires",
    "addr:country": "AR",
    "addr:housenumber": "2884",
    "addr:street": "Juncal",
    "amenity": "clinic",
    "healthcare": "clinic",
    "healthcare:speciality": "homeopathy",
    "name": "Asociación Médica Homeopática Argentina"
  }
},
{
  "type": "node",
  "id": 3579430144,
  "lat": -33.1225311,
  "lon": -64.3400235,
  "tags": {
    "addr:full": "Corrientes 730",
    "addr:postcode": "5800",
    "amenity": "clinic",
    "healthcare": "clinic",
    "name": "Dispensario 4",
    "operator": "Municipal",
    "operator:type": "public",
    "phone": "0358-4671111",
    "ref:sisa_codigo": "50140982231945",
    "ref:sisa_tipologia": "ESSIDT"
  }
},
{
  "type": "node",
  "id": 3580647606,
  "lat": -24.6831288,
  "lon": -65.1044243,
  "tags": {
    "amenity": "clinic",
    "healthcare": "clinic",
    "name": "Sala de Primeros Auxilios",
    "operator": "M. Alevich."
  }
},
{
  "type": "node",
  "id": 3583603437,
  "lat": -32.8305886,
  "lon": -68.8206299,
  "tags": {
    "amenity": "clinic",
    "healthcare": "clinic"
  }
},
{
  "type": "node",
  "id": 3587828822,
  "lat": -34.8104518,
  "lon": -58.2700021,
  "tags": {
    "addr:city": "San Juan Bautista",
    "addr:postcode": "1888",
    "amenity": "clinic",
    "healthcare": "clinic",
    "name": "Consultorios Médicos y Odontológicos Comunitarios",
    "phone": "+54 11 4255-0357"
  }
},
{
  "type": "node",
  "id": 3602835827,
  "lat": -37.9941531,
  "lon": -57.5599189,
  "tags": {
    "addr:housenumber": "1811",
    "addr:postcode": "7600",
    "addr:street": "Manuel Dorrego",
    "amenity": "clinic",
    "healthcare": "clinic",
    "name": "Traumatólogos Asociados"
  }
},
{
  "type": "node",
  "id": 3605822760,
  "lat": -31.5360282,
  "lon": -68.5178787,
  "tags": {
    "addr:city": "San Juan",
    "addr:housenumber": "574 (E)",
    "addr:postcode": "J5402DEL",
    "addr:street": "Rivadavia",
    "alt_name": "Centro Integral de Medicina de Alta Complejidad",
    "amenity": "clinic",
    "contact:email": "cimacsa@cimacsanjuan.com.ar",
    "description": "Con atención médica diaria y con especialidades y/o otras profesiones",
    "healthcare": "clinic",
    "name": "Cimac",
    "opening_hours": "Mo-Fr 08:00-21:00; Sa 08:30-12:30",
    "operator:type": "private",
    "phone": "+54 264 4293100",
    "ref:sisa_tipologia": "ESSIDT"
  }
},
{
  "type": "node",
  "id": 3613615478,
  "lat": -27.3671579,
  "lon": -55.9002849,
  "tags": {
    "addr:housenumber": "2422",
    "addr:street": "Córdoba",
    "amenity": "clinic",
    "name": "Clínica de la Mujer",
    "opening_hours": "Mo-Fr 16:00-20:00",
    "phone": "+54 376 442 3533"
  }
},
{
  "type": "node",
  "id": 3613679656,
  "lat": -27.3673159,
  "lon": -55.9003422,
  "tags": {
    "addr:housenumber": "2431",
    "addr:street": "Córdoba",
    "amenity": "clinic",
    "name": "Instituto del Piso Pelviano",
    "phone": "+54 376 443 8032",
    "website": "http://www.institutodepisopelviano.com"
  }
},
{
  "type": "node",
  "id": 3613747215,
  "lat": -27.3664629,
  "lon": -55.8995433,
  "tags": {
    "amenity": "clinic",
    "healthcare": "clinic",
    "name": "Centro del Ojo"
  }
},
{
  "type": "node",
  "id": 3620588972,
  "lat": -27.3701786,
  "lon": -55.8885657,
  "tags": {
    "addr:city": "Posadas",
    "addr:country": "AR",
    "addr:housenumber": "2079",
    "addr:postcode": "3300",
    "addr:province": "Misiones",
    "addr:street": "General Paz",
    "amenity": "clinic",
    "email": "info@nhestetica.com",
    "healthcare": "clinic",
    "name": "NH Estética",
    "phone": "+54 376 442 2700",
    "website": "https://www.nhestetica.com/"
  }
},
{
  "type": "node",
  "id": 3624146208,
  "lat": -27.4857905,
  "lon": -55.1171468,
  "tags": {
    "amenity": "clinic",
    "healthcare": "clinic",
    "name": "Centro Dermatológico"
  }
},
{
  "type": "node",
  "id": 3634680159,
  "lat": -25.4464681,
  "lon": -60.6412435,
  "tags": {
    "amenity": "clinic",
    "name": "SALA DE PRIMEROS AUXILIOS \"SAN MANUEL\""
  }
},