{
  "version": 0.6,
  "generator": "Overpass API 0.7.59 e21c39fe",
  "osm3s": {
    "timestamp_osm_base": "2022-10-14T21:54:52Z",
    "timestamp_areas_base": "2022-10-14T21:41:38Z",
    "copyright": "The data included in this document is from www.openstreetmap.org. The data is made available under ODbL."
  },
  "elements": [

{
  "type": "node",
  "id": 302101961,
  "lat": -38.7112157,
  "lon": -62.2772347,
  "tags": {
    "addr:housenumber": "37",
    "addr:street": "Bravard",
    "amenity": "hospital",
    "healthcare": "hospital",
    "name": "Municipal de Agudos Doctor Leónidas Lucero - Guardia"
  }
},
{
  "type": "node",
  "id": 428845265,
  "lat": -27.0526861,
  "lon": -65.4048573,
  "tags": {
    "addr:city": "Famaillá",
    "addr:full": "Belgrano 210",
    "addr:housenumber": "210",
    "addr:place": "Famaillá",
    "addr:postcode": "4132",
    "addr:street": "Belgrano",
    "amenity": "hospital",
    "description": "Bajo riesgo con internación simple",
    "healthcare": "hospital",
    "name": "Hospital Parajón Ortíz",
    "operator:type": "public",
    "ref:sisa_codigo": "10900282196027",
    "ref:sisa_tipologia": "ESCIG",
    "source": "sedronar.gov.ar | Public Domain (PD)"
  }
},
{
  "type": "node",
  "id": 475257295,
  "lat": -38.7199497,
  "lon": -62.2353073,
  "tags": {
    "amenity": "hospital",
    "healthcare": "hospital",
    "name": "Unidad Sanitaria"
  }
},
{
  "type": "node",
  "id": 570751791,
  "lat": -33.1397802,
  "lon": -66.5200994,
  "tags": {
    "amenity": "hospital",
    "healthcare": "hospital"
  }
},
{
  "type": "node",
  "id": 570758408,
  "lat": -32.8779091,
  "lon": -66.8445685,
  "tags": {
    "amenity": "hospital",
    "name": "Centro de Salud"
  }
},
{
  "type": "node",
  "id": 580269641,
  "lat": -28.4749041,
  "lon": -65.7859886,
  "tags": {
    "addr:city": "San Fernando del Valle de Catamarca",
    "addr:full": "Av. Virgen Del Valle 1050",
    "addr:place": "Capital",
    "addr:postcode": "4700",
    "amenity": "hospital",
    "description": "Alto riesgo con terapia intensiva especializada",
    "healthcare": "hospital",
    "healthcare:speciality": "paediatrics",
    "name": "Hospital Sanitario Interzonal De Niños Eva Perón",
    "operator:type": "public",
    "phone": "+54-03833 43-7900",
    "ref:sisa_codigo": "11100492124046",
    "ref:sisa_tipologia": "ESCIEP",
    "source": "sedronar.gov.ar | Public Domain (PD)"
  }
},
{
  "type": "node",
  "id": 595234316,
  "lat": -25.1198231,
  "lon": -66.1645893,
  "tags": {
    "addr:city": "Cachi",
    "addr:full": "Benjamin Zorrilla S/N°",
    "addr:place": "Cachi",
    "addr:postcode": "4417",
    "amenity": "hospital",
    "description": "Bajo riesgo con internación simple",
    "healthcare": "hospital",
    "name": "Hospital Dr.Arne Hoygaard",
    "operator:type": "public",
    "ref:sisa_codigo": "10660142173021",
    "ref:sisa_tipologia": "ESCIG",
    "source": "sedronar.gov.ar | Public Domain (PD)"
  }
},
{
  "type": "node",
  "id": 598367703,
  "lat": -29.1583278,
  "lon": -67.5108389,
  "tags": {
    "amenity": "hospital",
    "healthcare": "hospital"
  }
},
{
  "type": "node",
  "id": 621904318,
  "lat": -35.2688584,
  "lon": -59.7789879,
  "tags": {
    "addr:city": "Norberto de la Riestra",
    "addr:postcode": "6663",
    "addr:street": "Güemes",
    "amenity": "hospital",
    "healthcare": "hospital",
    "name": "San Roque"
  }
},
{
  "type": "node",
  "id": 628210040,
  "lat": -43.3107555,
  "lon": -65.0448873,
  "tags": {
    "addr:city": "Rawson",
    "addr:housename": "Juan Manuel de Rosas",
    "addr:housenumber": "450",
    "addr:postcode": "9103",
    "addr:street": "Avenida Juan Manuel de Rosas",
    "amenity": "hospital",
    "healthcare": "hospital",
    "name": "Mini Hospital Playa Unión",
    "phone": "+54 280 4496003"
  }
},
{
  "type": "node",
  "id": 638322741,
  "lat": -49.3051680,
  "lon": -67.7234995,
  "tags": {
    "addr:city": "Puerto San Julian",
    "addr:full": "Av. Costanera Y El Cano S/N",
    "addr:place": "Magallanes",
    "addr:postcode": "9310",
    "amenity": "hospital",
    "description": "Bajo riesgo con internación simple",
    "healthcare": "hospital",
    "name": "Hospital Distrital Dr. Miguel A. Lombardich",
    "operator:type": "public",
    "ref:sisa_codigo": "10780422183006",
    "ref:sisa_tipologia": "ESCIG",
    "source": "sedronar.gov.ar | Public Domain (PD)"
  }
},
{
  "type": "node",
  "id": 723185196,
  "lat": -34.3514037,
  "lon": -58.7967416,
  "tags": {
    "addr:city": "Belén de Escobar",
    "addr:full": "Spadaccini 1084",
    "addr:housenumber": "1084",
    "addr:postcode": "1625",
    "addr:street": "Spadaccini",
    "alt_name": "Sanatorio Clinica Privada Fatima",
    "amenity": "hospital",
    "healthcare": "hospital",
    "name": "Clínica Fatima",
    "operator": "Privado",
    "operator:type": "private",
    "phone": "(03488) 421000",
    "ref:sisa_codigo": "10062522300112",
    "ref:sisa_tipologia": "ESCIG",
    "website": "http://clinicafatimaescobar.com.ar/"
  }
},
{
  "type": "node",
  "id": 791743847,
  "lat": -31.4246194,
  "lon": -64.1873361,
  "tags": {
    "addr:city": "Córdoba",
    "addr:full": "Hipolito Yrigoyen 384",
    "addr:housenumber": "384",
    "addr:postcode": "5000",
    "addr:street": "Avenida Hipólito Yrigoyen",
    "amenity": "hospital",
    "healthcare": "hospital",
    "name": "Sanatorio Allende",
    "operator": "Privado",
    "operator:type": "private",
    "phone": "+54 351 4269212",
    "ref:sisa_codigo": "10140142331284",
    "ref:sisa_tipologia": "ESCIG",
    "website": "https://www.sanatorioallende.com/"
  }
},
{
  "type": "node",
  "id": 870946457,
  "lat": -33.1318282,
  "lon": -59.3089575,
  "tags": {
    "addr:city": "Gualeguay",
    "addr:postcode": "2840",
    "addr:street": "Avenida de la Soberanía",
    "amenity": "hospital",
    "healthcare": "hospital",
    "name": "Hospital San Antonio",
    "phone": "+54 3444 427405",
    "ref:sisa_codigo": "10300492142063",
    "ref:sisa_tipologia": "ESCIG",
    "wikidata": "Q94691214"
  }
},
{
  "type": "node",
  "id": 870955589,
  "lat": -26.6186912,
  "lon": -54.1078255,
  "tags": {
    "addr:city": "San Pedro",
    "addr:postcode": "3352",
    "addr:street": "Almirante Brown",
    "ambulance": "3",
    "amenity": "hospital",
    "emergency": "yes",
    "healthcare": "hospital",
    "name": "Hospital de San Pedro",
    "phone": "+54 3751 470010;+54 3751 425207;+54 3751 426383",
    "ref:ZonaSanitaria": "Noreste",
    "ref:cuie_codigo": "N05181",
    "ref:nivel": "I",
    "ref:sisa_codigo": "10541122164490",
    "source": "http://www.salud.misiones.gov.ar/index.php/red-sanitaria/hospitales"
  }
},
{
  "type": "node",
  "id": 896357343,
  "lat": -40.6509951,
  "lon": -62.7538983,
  "tags": {
    "amenity": "hospital",
    "healthcare": "hospital"
  }
},
{
  "type": "node",
  "id": 909830274,
  "lat": -34.5220660,
  "lon": -58.5078040,
  "tags": {
    "addr:city": "Olivos",
    "addr:housenumber": "3145",
    "addr:postcode": "1636",
    "addr:street": "Gobernador Manuel Ugarte",
    "amenity": "hospital",
    "description": "Organización profesional de servicios de salud para empresas.",
    "emergency": "no",
    "name": "Policlinica Asmel",
    "website": "http://www.asmel.com/"
  }
},
{
  "type": "node",
  "id": 965178942,
  "lat": -25.3296321,
  "lon": -66.2426964,
  "tags": {
    "addr:city": "Seclantas",
    "addr:full": "Abraham Cornejo S/N°- Seclantas",
    "addr:place": "Molinos",
    "addr:postcode": "4419",
    "amenity": "hospital",
    "description": "Mediano riesgo con internación con cuidados especiales",
    "healthcare": "hospital",
    "name": "Hospital Presbitero Benjamín Olmos",
    "operator:type": "public",
    "ref:sisa_codigo": "10661192173060",
    "ref:sisa_tipologia": "ESCIE",
    "source": "sedronar.gov.ar | Public Domain (PD)"
  }
},
{
  "type": "node",
  "id": 973396559,
  "lat": -26.8344083,
  "lon": -65.2057405,
  "tags": {
    "amenity": "hospital",
    "healthcare": "hospital",
    "name": "Clinica Mayo"
  }
},
{
  "type": "node",
  "id": 973396563,
  "lat": -26.8336509,
  "lon": -65.2087049,
  "tags": {
    "amenity": "hospital",
    "healthcare": "hospital",
    "name": "Asistencia Pública"
  }
},
{
  "type": "node",
  "id": 991049299,
  "lat": -28.4785419,
  "lon": -65.7746917,
  "tags": {
    "addr:housenumber": "847",
    "addr:street": "Buenos Aires",
    "amenity": "hospital",
    "healthcare": "hospital",
    "name": "Clínica de Psicoterapia Fernandez"
  }
},
{
  "type": "node",
  "id": 993956646,
  "lat": -31.2966253,
  "lon": -64.4535026,
  "tags": {
    "amenity": "hospital",
    "healthcare": "hospital",
    "name": "Hospital Domingo Funes"
  }
},
{
  "type": "node",
  "id": 997446236,
  "lat": -31.6788087,
  "lon": -60.7777214,
  "tags": {
    "addr:city": "Santo Tomé",
    "addr:housenumber": "3550",
    "addr:postcode": "S3016",
    "addr:street": "Miguel de Azcuenaga",
    "amenity": "hospital",
    "healthcare": "hospital",
    "name": "Samco Santo Tomé",
    "phone": "+54 342 4743444"
  }
},
{
  "type": "node",
  "id": 997980488,
  "lat": -35.0268570,
  "lon": -58.4330078,
  "tags": {
    "addr:city": "San Vicente",
    "addr:full": "Pascual Santoro y Matheu S/n",
    "addr:postcode": "1865",
    "addr:street": "Larrea",
    "amenity": "hospital",
    "healthcare": "hospital",
    "name": "Hospital Municipal Doctor Ramón Carillo",
    "operator": "Municipal",
    "operator:type": "public",
    "phone": "+54 2225 481387",
    "ref:sisa_codigo": "10067782200365",
    "ref:sisa_tipologia": "ESCIG"
  }
},
{
  "type": "node",
  "id": 1042035126,
  "lat": -28.7500472,
  "lon": -65.5470945,
  "tags": {
    "amenity": "hospital",
    "healthcare": "hospital",
    "is_in": "Anquincila",
    "is_in:municipality": "Ancasti",
    "name": "Posta Municipal"
  }
},
{
  "type": "node",
  "id": 1042143763,
  "lat": -31.7300000,
  "lon": -60.5217000,
  "tags": {
    "amenity": "hospital",
    "emergency": "yes",
    "healthcare": "hospital",
    "name": "Hospital Materno Infantil San Roque",
    "source": "ourairports.com",
    "wikidata": "Q94691181"
  }
},
{
  "type": "node",
  "id": 1060435685,
  "lat": -26.0639958,
  "lon": -65.9830381,
  "tags": {
    "amenity": "hospital",
    "healthcare": "hospital"
  }
},
{
  "type": "node",
  "id": 1060515876,
  "lat": -34.7524819,
  "lon": -58.3431685,
  "tags": {
    "addr:full": "Avenida Eva Perón 4798",
    "addr:postcode": "1834",
    "amenity": "hospital",
    "healthcare": "hospital",
    "name": "Clinica Comahue",
    "operator": "Privado",
    "operator:type": "private",
    "phone": "(011) 4243-9232",
    "ref:sisa_codigo": "10064902300028",
    "ref:sisa_tipologia": "ESCIG",
    "wikidata": "Q93820024"
  }
},
{
  "type": "node",
  "id": 1069283053,
  "lat": -36.3581334,
  "lon": -56.7257347,
  "tags": {
    "addr:city": "San Clemente del Tuyú",
    "addr:housenumber": "505",
    "addr:postcode": "7105",
    "addr:street": "Avenida San Martín",
    "amenity": "hospital",
    "healthcare": "hospital",
    "name": "Hospital General de Agudos",
    "phone": "54 02252 421132"
  }
},
{
  "type": "node",
  "id": 1076132969,
  "lat": -37.1768188,
  "lon": -62.7496599,
  "tags": {
    "amenity": "hospital",
    "healthcare": "hospital",
    "name": "Guardia"
  }
},
{
  "type": "node",
  "id": 1076132972,
  "lat": -37.1772341,
  "lon": -62.7498486,
  "tags": {
    "amenity": "hospital",
    "healthcare": "hospital",
    "name": "Ingreso Internación"
  }
},
{
  "type": "node",
  "id": 1104084418,
  "lat": -37.8529609,
  "lon": -58.2514732,
  "tags": {
    "addr:city": "Balcarce",
    "addr:postcode": "7620",
    "addr:street": "Calle 19",
    "amenity": "hospital",
    "healthcare": "hospital",
    "name": "Hospital Municipal"
  }
},
{
  "type": "node",
  "id": 1104917334,
  "lat": -35.1672526,
  "lon": -60.0845479,
  "tags": {
    "addr:city": "Gobernador Ugarte",
    "addr:postcode": "6621",
    "addr:street": "Córdoba",
    "amenity": "hospital",
    "healthcare": "hospital",
    "name": "Hospital de Gobernador Ugarte"
  }
},
{
  "type": "node",
  "id": 1110010342,
  "lat": -33.1084173,
  "lon": -60.7951533,
  "tags": {
    "addr:full": "Sara Pacheco Y 9 De Julio",
    "addr:phone": "+54 3402 46-1151",
    "addr:postcode": "S2119",
    "amenity": "hospital",
    "healthcare": "hospital",
    "name": "Centro de Salud Comunal de Piñero",
    "operator": "Comuna de Piñero",
    "operator:type": "public",
    "ref:sisa_codigo": "50820842284628",
    "ref:sisa_tipologia": "ESSIDT"
  }
},
{
  "type": "node",
  "id": 1119491743,
  "lat": -34.6019496,
  "lon": -58.3936574,
  "tags": {
    "addr:city": "Ciudad Autónoma de Buenos Aires",
    "addr:full": "Tucumán 1863",
    "addr:housenumber": "1863",
    "addr:postcode": "1050",
    "addr:street": "Tucumán",
    "amenity": "hospital",
    "contact:facebook": "https://www.facebook.com/sanatoriodelaprovidencia",
    "contact:mobile": "+54 11 6300 5284",
    "healthcare": "hospital",
    "name": "Sanatorio De La Providencia",
    "operator": "Privado",
    "operator:type": "private",
    "phone": "+54 (11) 4813-2721",
    "ref:sisa_codigo": "10020012315237",
    "ref:sisa_tipologia": "ESCIG",
    "website": "http://www.sanatoriodelaprovidencia.com/",
    "wikidata": "Q93141481"
  }
},
{
  "type": "node",
  "id": 1153947634,
  "lat": -27.4333791,
  "lon": -65.6217363,
  "tags": {
    "addr:city": "Aguilares",
    "addr:full": "Gorriti y Alsina",
    "addr:place": "Río Chico",
    "addr:postcode": "4152",
    "addr:street": "Ignacio Gorriti",
    "amenity": "hospital",
    "description": "Bajo riesgo con internación simple",
    "healthcare": "hospital",
    "name": "Hospital Centro de Salud de Aguilares",
    "nohousenumber": "yes",
    "operator:type": "public",
    "ref:sisa_codigo": "10900772196012",
    "ref:sisa_tipologia": "ESCIG",
    "source": "sedronar.gov.ar | Public Domain (PD)"
  }
},
{
  "type": "node",
  "id": 1179204583,
  "lat": -45.9195830,
  "lon": -67.5546674,
  "tags": {
    "amenity": "hospital",
    "healthcare": "hospital",
    "name": "Hospital Rural Rada Tilly"
  }
},
{
  "type": "node",
  "id": 1236954451,
  "lat": -38.0025243,
  "lon": -57.5516277,
  "tags": {
    "addr:housenumber": "2749",
    "addr:postcode": "7600",
    "addr:street": "Avenida Colón",
    "amenity": "hospital",
    "healthcare": "hospital",
    "name": " Clínica del Niño y la Madre"
  }
},
{
  "type": "node",
  "id": 1240416098,
  "lat": -26.8304337,
  "lon": -65.2189387,
  "tags": {
    "amenity": "hospital",
    "emergency": "yes",
    "healthcare": "hospital",
    "name": "Galvez"
  }
},
{
  "type": "node",
  "id": 1271150091,
  "lat": -38.8524222,
  "lon": -60.0702336,
  "tags": {
    "amenity": "hospital",
    "healthcare": "hospital"
  }
},
{
  "type": "node",
  "id": 1272484058,
  "lat": -38.5385394,
  "lon": -58.7613517,
  "tags": {
    "addr:city": "Necochea",
    "addr:housenumber": "4801",
    "addr:postcode": "7630",
    "addr:street": "Avenida 59",
    "amenity": "hospital",
    "description": "Urgencias marque 107 desde celular *107",
    "emergency": "yes",
    "healthcare": "hospital",
    "name": "Hospital Municipal",
    "phone": "+54 2262 42 2405",
    "wheelchair": "yes"
  }
},
{
  "type": "node",
  "id": 1273750057,
  "lat": -38.0239654,
  "lon": -60.1062976,
  "tags": {
    "amenity": "hospital",
    "healthcare": "hospital",
    "name": "Sala de Primeros Auxilios"
  }
},
{
  "type": "node",
  "id": 1273834857,
  "lat": -38.0336575,
  "lon": -60.1009383,
  "tags": {
    "addr:city": "Adolfo Gonzales Chaves",
    "addr:postcode": "7513",
    "addr:street": "Moreno",
    "amenity": "hospital",
    "healthcare": "hospital",
    "name": "Clínica Gonzáles Chaves"
  }
},
{
  "type": "node",
  "id": 1278234559,
  "lat": -38.9950473,
  "lon": -61.5529783,
  "tags": {
    "amenity": "hospital",
    "healthcare": "hospital",
    "name": "Sala Médica"
  }
},
{
  "type": "node",
  "id": 1281667901,
  "lat": -35.4713481,
  "lon": -69.5867195,
  "tags": {
    "amenity": "hospital",
    "emergency": "yes",
    "healthcare": "hospital",
    "name": "Clínica San Francisco"
  }
},
{
  "type": "node",
  "id": 1295516956,
  "lat": -34.5892187,
  "lon": -58.4003014,
  "tags": {
    "addr:full": "Anchorena 1872",
    "addr:housenumber": "1872",
    "addr:postcode": "1425",
    "addr:street": "Tomás Manuel de Anchorena",
    "amenity": "hospital",
    "healthcare": "hospital",
    "name": "Sanatorio Anchorena",
    "operator": "Privado",
    "operator:type": "private",
    "phone": "+54 (11) 4808-5400",
    "ref:sisa_codigo": "10020012315235",
    "ref:sisa_tipologia": "ESCIG",
    "website": "http://www.sanatorio-anchorena.com.ar/",
    "wheelchair": "no",
    "wikidata": "Q90410336"
  }
},
{
  "type": "node",
  "id": 1300450714,
  "lat": -34.8632581,
  "lon": -58.0335857,
  "tags": {
    "amenity": "hospital",
    "healthcare": "hospital",
    "name": "Centro de Salud N 38 - Barrio Savoia"
  }
},
{
  "type": "node",
  "id": 1308237382,
  "lat": -38.6930059,
  "lon": -60.0126100,
  "tags": {
    "addr:city": "San Francisco de Bellocq",
    "addr:postcode": "7505",
    "addr:street": "18",
    "amenity": "hospital",
    "healthcare": "hospital",
    "name": "Sala de Primeros Auxilios"
  }
},
{
  "type": "node",
  "id": 1308342997,
  "lat": -38.8085401,
  "lon": -59.7380350,
  "tags": {
    "amenity": "hospital",
    "name": "Sala de Primeros Auxilios"
  }
},
{
  "type": "node",
  "id": 1308349934,
  "lat": -38.8973876,
  "lon": -60.3414427,
  "tags": {
    "amenity": "hospital",
    "healthcare": "hospital",
    "name": "Sala de Primeros Auxilios"
  }
},
{
  "type": "node",
  "id": 1308364332,
  "lat": -38.7233565,
  "lon": -60.4583643,
  "tags": {
    "addr:city": "Copetonas",
    "addr:housenumber": "888",
    "addr:postcode": "7511",
    "addr:street": "Italia",
    "amenity": "hospital",
    "healthcare": "hospital"
  }
},
{
  "type": "node",
  "id": 1309568110,
  "lat": -37.9772850,
  "lon": -62.3323659,
  "tags": {
    "amenity": "hospital",
    "healthcare": "hospital",
    "name": "Sala Médica"
  }
},
{
  "type": "node",
  "id": 1312672582,
  "lat": -34.8728105,
  "lon": -58.0187419,
  "tags": {
    "addr:street": "Calle 491",
    "amenity": "hospital",
    "emergency": "yes",
    "healthcare": "hospital",
    "name": "Centro de Salud N 28",
    "source": "survey"
  }
},
{
  "type": "node",
  "id": 1320243404,
  "lat": -37.6059424,
  "lon": -62.4047598,
  "tags": {
    "amenity": "hospital",
    "healthcare": "hospital",
    "name": "Sala de Primeros Auxilios"
  }
},
{
  "type": "node",
  "id": 1320243428,
  "lat": -37.6040300,
  "lon": -62.3974427,
  "tags": {
    "amenity": "hospital",
    "healthcare": "hospital",
    "name": "Hospital Municipal"
  }
},
{
  "type": "node",
  "id": 1320243433,
  "lat": -37.6010490,
  "lon": -62.4063021,
  "tags": {
    "amenity": "hospital",
    "healthcare": "hospital",
    "name": "Sala de Primeros Auxilios"
  }
},
{
  "type": "node",
  "id": 1320928706,
  "lat": -37.7183122,
  "lon": -62.6080465,
  "tags": {
    "amenity": "hospital",
    "healthcare": "hospital",
    "name": "Sala de Primeros Auxilios"
  }
},
{
  "type": "node",
  "id": 1320979596,
  "lat": -34.5952817,
  "lon": -58.4116496,
  "tags": {
    "amenity": "hospital",
    "healthcare": "hospital",
    "name": "Instituto Sacre Coeur"
  }
},
{
  "type": "node",
  "id": 1321982556,
  "lat": -37.6652189,
  "lon": -63.5477165,
  "tags": {
    "addr:city": "Guatraché",
    "addr:housenumber": "158",
    "addr:postcode": "6311",
    "addr:street": "Primera Junta",
    "amenity": "hospital",
    "healthcare": "hospital",
    "name": "Hospital Dr. Manuel Freire",
    "phone": "+54 2924 492035"
  }
},
{
  "type": "node",
  "id": 1322139780,
  "lat": -37.5455353,
  "lon": -62.7684368,
  "tags": {
    "amenity": "hospital",
    "healthcare": "hospital",
    "name": "Enfermería"
  }
},
{
  "type": "node",
  "id": 1329309230,
  "lat": -43.2554886,
  "lon": -65.3107664,
  "tags": {
    "addr:city": "Trelew",
    "addr:full": "28 De Julio Y Pellegrini",
    "addr:place": "Rawson",
    "amenity": "hospital",
    "description": "Alto riesgo con terapia intensiva especializada",
    "emergency": "yes",
    "healthcare": "hospital",
    "name": "Hospital Zonal Trelew Dr. Adolfo Margara",
    "operator:type": "public",
    "ref:sisa_codigo": "10260772129042",
    "ref:sisa_tipologia": "ESCIG",
    "source": "sedronar.gov.ar | Public Domain (PD)"
  }
},
{
  "type": "node",
  "id": 1329309240,
  "lat": -43.2560824,
  "lon": -65.3147629,
  "tags": {
    "amenity": "hospital",
    "healthcare": "hospital",
    "name": "Sanatorio Trelew"
  }
},
{
  "type": "node",
  "id": 1329309273,
  "lat": -43.2567180,
  "lon": -65.3173392,
  "tags": {
    "amenity": "hospital",
    "emergency": "yes",
    "healthcare": "hospital",
    "name": "Clinica San Miguel"
  }
},
{
  "type": "node",
  "id": 1333703168,
  "lat": -46.5496237,
  "lon": -68.9224858,
  "tags": {
    "addr:city": "Las Heras",
    "addr:full": "El Calafate Y Juan Jose Paso",
    "addr:place": "Deseado",
    "addr:postcode": "9017",
    "amenity": "hospital",
    "description": "Bajo riesgo con internación simple",
    "emergency": "yes",
    "healthcare": "hospital",
    "name": "Hospital Distrital Las Heras",
    "operator:type": "public",
    "ref:sisa_codigo": "10780142183009",
    "ref:sisa_tipologia": "ESCIG",
    "source": "sedronar.gov.ar | Public Domain (PD)"
  }
},
{
  "type": "node",
  "id": 1373777946,
  "lat": -34.6121797,
  "lon": -68.3422308,
  "tags": {
    "amenity": "hospital",
    "healthcare": "hospital",
    "name": "Policlínica"
  }
},
{
  "type": "node",
  "id": 1373994448,
  "lat": -27.4507362,
  "lon": -58.9915283,
  "tags": {
    "addr:city": "Resistencia",
    "addr:housenumber": "268",
    "addr:street": "Necochea",
    "amenity": "hospital",
    "healthcare": "hospital",
    "name": "Sanatorio Galeno",
    "operator:type": "private",
    "ref:sisa_codigo": "10221402326080",
    "ref:sisa_tipologia": "ESCIG"
  }
},
{
  "type": "node",
  "id": 1374006184,
  "lat": -34.6191188,
  "lon": -68.3317103,
  "tags": {
    "amenity": "hospital",
    "healthcare": "hospital",
    "name": "Clínica San Rafael"
  }
},
{
  "type": "node",
  "id": 1374830295,
  "lat": -34.6264197,
  "lon": -68.3353028,
  "tags": {
    "addr:city": "San Rafael",
    "addr:housenumber": "950",
    "addr:postcode": "5600",
    "addr:street": "Av. El Libertador",
    "amenity": "hospital",
    "description": "centro de atención a evacuados isla del rió diamante. simulacro 2015.",
    "emergency": "yes",
    "healthcare": "hospital",
    "level": "4_piso_servicio_hemodinamia",
    "name": "Hospital Español",
    "phone": "260-4423960"
  }
},
{
  "type": "node",
  "id": 1374837436,
  "lat": -34.6129375,
  "lon": -68.3430598,
  "tags": {
    "amenity": "hospital",
    "healthcare": "hospital"
  }
},
{
  "type": "node",
  "id": 1376344982,
  "lat": -33.6849767,
  "lon": -59.6724640,
  "tags": {
    "addr:city": "San Pedro",
    "addr:postcode": "2930",
    "addr:street": "25 de Mayo",
    "amenity": "hospital",
    "emergency": "yes",
    "healthcare": "hospital",
    "name": "Hospital Subzonal Municipal"
  }
},
{
  "type": "node",
  "id": 1383339448,
  "lat": -32.9456804,
  "lon": -68.8702115,
  "tags": {
    "addr:city": "Godoy Cruz",
    "amenity": "hospital",
    "healthcare": "hospital"
  }
},
{
  "type": "node",
  "id": 1387955615,
  "lat": -39.9176839,
  "lon": -62.6177906,
  "tags": {
    "addr:city": "Villalonga",
    "addr:housenumber": "168",
    "addr:postcode": "B8512AXC",
    "addr:street": "29 de Mayo",
    "amenity": "hospital",
    "emergency": "yes",
    "healthcare": "hospital",
    "healthcare:speciality": "general;pediatrics;trauma",
    "name": "Hospital Municipal Eduardo Arancibia",
    "operator": "Municipalidad de Patagones",
    "operator:type": "public",
    "phone": "02928 492038",
    "wheelchair": "limited"
  }
},
{
  "type": "node",
  "id": 1390308828,
  "lat": -42.7710746,
  "lon": -65.0337319,
  "tags": {
    "addr:city": "Puerto Madryn",
    "addr:housenumber": "651",
    "addr:street": "Bartolomé Mitre",
    "amenity": "hospital",
    "healthcare": "hospital",
    "name": "Sanatorio Santa María"
  }
},
{
  "type": "node",
  "id": 1390308829,
  "lat": -42.7701467,
  "lon": -65.0438812,
  "tags": {
    "addr:city": "Puerto Madryn",
    "addr:housenumber": "651",
    "addr:street": "Bartolomé Mitre",
    "amenity": "hospital",
    "healthcare": "hospital",
    "name": "Sanatorio de la Ciudad"
  }
},
{
  "type": "node",
  "id": 1393564169,
  "lat": -26.5684384,
  "lon": -54.7665377,
  "tags": {
    "addr:city": "Montecarlo",
    "addr:housenumber": "117",
    "addr:postcode": "3384",
    "addr:street": "Comandante Andresito",
    "alt_name": "Hospital de Área Montecarlo",
    "ambulance": "2",
    "amenity": "hospital",
    "emergency": "yes",
    "healthcare": "hospital",
    "name": "Hospital de Montecarlo Doctor Oscar Eugenio Darú",
    "phone": "+54 3751 480020",
    "ref:ZonaSanitaria": "Norte Paraná",
    "ref:cuie_codigo": "N05177",
    "ref:nivel": "I",
    "ref:sisa_codigo": "10540842164463",
    "source": "http://www.salud.misiones.gov.ar/index.php/red-sanitaria/hospitales"
  }
},
{
  "type": "node",
  "id": 1396605440,
  "lat": -47.7463293,
  "lon": -65.8880088,
  "tags": {
    "amenity": "hospital",
    "healthcare": "hospital",
    "name": "Centro Asistencial"
  }
},
{
  "type": "node",
  "id": 1397531502,
  "lat": -36.0185772,
  "lon": -60.0094994,
  "tags": {
    "amenity": "hospital",
    "healthcare": "hospital"
  }
},
{
  "type": "node",
  "id": 1399412206,
  "lat": -43.2582973,
  "lon": -65.3366488,
  "tags": {
    "amenity": "hospital",
    "healthcare": "hospital",
    "name": "Centro de Salud Pascual Daleoso"
  }
},
{
  "type": "node",
  "id": 1399412207,
  "lat": -43.2523401,
  "lon": -65.3219053,
  "tags": {
    "amenity": "hospital",
    "healthcare": "hospital",
    "name": "Centro de Salud La Loma"
  }
},
{
  "type": "node",
  "id": 1399412208,
  "lat": -43.2602237,
  "lon": -65.2900199,
  "tags": {
    "amenity": "hospital",
    "emergency": "yes",
    "healthcare": "hospital",
    "name": "Centro de Salud Villa Italia"
  }
},
{
  "type": "node",
  "id": 1399412209,
  "lat": -43.2738653,
  "lon": -65.3060535,
  "tags": {
    "amenity": "hospital",
    "healthcare": "hospital",
    "name": "Centro de Salud Etchepare"
  }
},
{
  "type": "node",
  "id": 1399412210,
  "lat": -43.2514230,
  "lon": -65.3291140,
  "tags": {
    "amenity": "hospital",
    "healthcare": "hospital",
    "name": "Centro de Salud \"Jorge Morado\""
  }
},
{
  "type": "node",
  "id": 1399412211,
  "lat": -43.2678631,
  "lon": -65.3513435,
  "tags": {
    "amenity": "hospital",
    "healthcare": "hospital",
    "name": "Centro de Salud Ramón Carrillo"
  }
},
{
  "type": "node",
  "id": 1399412212,
  "lat": -43.2572983,
  "lon": -65.3095020,
  "tags": {
    "amenity": "hospital",
    "healthcare": "hospital",
    "name": "Clínica del Valle"
  }
},
{
  "type": "node",
  "id": 1399413545,
  "lat": -43.2434260,
  "lon": -65.3185346,
  "tags": {
    "amenity": "hospital",
    "healthcare": "hospital",
    "name": "Centro de Salud Ingeniero Franzetti"
  }
},
{
  "type": "node",
  "id": 1399413548,
  "lat": -43.2392933,
  "lon": -65.3051039,
  "tags": {
    "amenity": "hospital",
    "healthcare": "hospital",
    "name": "Centro de Salud Tiro Federal"
  }
},
{
  "type": "node",
  "id": 1399413549,
  "lat": -43.2421548,
  "lon": -65.3048266,
  "tags": {
    "amenity": "hospital",
    "healthcare": "hospital",
    "name": "Centro de Salud Gwenda Williams"
  }
},
{
  "type": "node",
  "id": 1400136832,
  "lat": -33.0102340,
  "lon": -58.5328597,
  "tags": {
    "amenity": "hospital",
    "healthcare": "hospital",
    "name": "Hospital Centenario",
    "wikidata": "Q94691101"
  }
},
{
  "type": "node",
  "id": 1402832207,
  "lat": -34.6993520,
  "lon": -58.5038610,
  "tags": {
    "addr:city": "Tapiales",
    "addr:housenumber": "20",
    "addr:postcode": "1768",
    "addr:street": "Domingo Millán",
    "amenity": "hospital",
    "healthcare": "clinic",
    "name": "Clinica Los Cedros",
    "operator": "private",
    "phone": "(011) 4622-8188",
    "ref:sisa_codigo": "10064272305809",
    "ref:sisa_tipologia": "ESCIG",
    "website": "https://www.cercanooeste.com/comercio/Clinica-Los-Cedros-de-Tapiales/Villa-Madero/Clinicas-y-Sanatorios/34204"
  }
},
{
  "type": "node",
  "id": 1403193925,
  "lat": -30.3081119,
  "lon": -61.2282028,
  "tags": {
    "addr:city": "San Cristóbal",
    "addr:housenumber": "1456",
    "addr:postcode": "S3070",
    "addr:street": "Cochabamba",
    "alt_name": "Hospital Don Julio Cesar Villanueva",
    "amenity": "hospital",
    "healthcare": "hospital",
    "name": "Hospital De San Cristobal Don Julio Cesar Villanueva",
    "phone": "+54 3408 420520",
    "ref:sisa_codigo": "10820912184192",
    "ref:sisa_tipologia": "ESCIG"
  }
},
{
  "type": "node",
  "id": 1436034212,
  "lat": -34.6093812,
  "lon": -58.4166919,
  "tags": {
    "addr:city": "Ciudad Autónoma de Buenos Aires",
    "addr:housenumber": "3545",
    "addr:postcode": "C1201AAO",
    "addr:street": "Bartolomé Mitre",
    "amenity": "hospital",
    "brand": "Obra Social del Personal de la Construcción",
    "brand:website": "http://construirsalud.com.ar/",
    "healthcare": "hospital",
    "name": "Sanatorio Franchín",
    "operator": "Administradora Sanatorial Metropolitana S. A.",
    "operator:type": "private",
    "phone": "+541148654030",
    "ref:sisa_codigo": "10020012715242",
    "ref:sisa_tipologia": "ESCIG",
    "wikidata": "Q93141531"
  }
},
{
  "type": "node",
  "id": 1446668271,
  "lat": -28.0666401,
  "lon": -67.5689618,
  "tags": {
    "addr:city": "Tinogasta",
    "addr:full": "Moreno 950",
    "addr:place": "Tinogasta",
    "addr:postcode": "5340",
    "amenity": "hospital",
    "description": "Bajo riesgo con internación simple",
    "healthcare": "hospital",
    "name": "Hospital Sanitario Zonal De Tinogasta San Juan Bautista",
    "operator:type": "public",
    "ref:sisa_codigo": "10101052124034",
    "ref:sisa_tipologia": "ESCIG",
    "source": "sedronar.gov.ar | Public Domain (PD)"
  }
},
{
  "type": "node",
  "id": 1446713900,
  "lat": -28.0672559,
  "lon": -67.5662647,
  "tags": {
    "amenity": "hospital",
    "healthcare": "hospital",
    "name": "Hospital Zonal (Emergencias)"
  }
},
{
  "type": "node",
  "id": 1446731578,
  "lat": -28.0643727,
  "lon": -67.5622617,
  "tags": {
    "amenity": "hospital",
    "description": "Clínica Privada",
    "healthcare": "hospital",
    "name": "Clínica Virgen del Valle"
  }
},
{
  "type": "node",
  "id": 1459467041,
  "lat": -27.1646033,
  "lon": -65.4954860,
  "tags": {
    "addr:city": "Monteros",
    "addr:postcode": "4142",
    "addr:street": "Leandro Araoz",
    "amenity": "hospital",
    "emergency": "yes",
    "healthcare": "hospital",
    "name": "Sanatorio del Rosario"
  }
},
{
  "type": "node",
  "id": 1459467043,
  "lat": -27.1693773,
  "lon": -65.4993296,
  "tags": {
    "amenity": "hospital",
    "emergency": "yes",
    "healthcare": "hospital",
    "name": "Sanatorio Racedo"
  }
},
{
  "type": "node",
  "id": 1483995922,
  "lat": -32.1762440,
  "lon": -64.4538483,
  "tags": {
    "addr:city": "Villa del Dique",
    "addr:full": "Bulevar Hipólito Yrigoyen y Córdoba",
    "addr:postcode": "5862",
    "addr:street": "Bulevar Hipólito Yrigoyen",
    "amenity": "hospital",
    "emergency": "yes",
    "healthcare": "hospital",
    "name": "Hospital Municipal Doctor Luis Rivarola",
    "phone": "+54 3546 49-7636"
  }
},
{
  "type": "node",
  "id": 1486487531,
  "lat": -38.7184977,
  "lon": -62.3918671,
  "tags": {
    "addr:city": "General Daniel Cerri",
    "addr:postcode": "8105",
    "addr:street": "Avenida 25 de Mayo",
    "amenity": "hospital",
    "healthcare": "hospital",
    "name": "Hospital Municipal"
  }
},
{
  "type": "node",
  "id": 1490089539,
  "lat": -31.6512916,
  "lon": -63.9139129,
  "tags": {
    "amenity": "hospital",
    "emergency": "yes",
    "healthcare": "hospital",
    "name": "Hospital Municipal"
  }
},
{
  "type": "node",
  "id": 1495629862,
  "lat": -31.8025777,
  "lon": -64.4168237,
  "tags": {
    "amenity": "hospital",
    "healthcare": "hospital",
    "name": "Dispensario de José de la Quintana"
  }
},
{
  "type": "node",
  "id": 1510893597,
  "lat": -32.4326348,
  "lon": -63.2495857,
  "tags": {
    "amenity": "hospital",
    "healthcare": "hospital"
  }
},
{
  "type": "node",
  "id": 1514163029,
  "lat": -45.8614857,
  "lon": -67.4833514,
  "tags": {
    "amenity": "hospital",
    "emergency": "yes",
    "healthcare": "hospital",
    "name": "Clinica Española"
  }
},
{
  "type": "node",
  "id": 1557455256,
  "lat": -46.5954710,
  "lon": -70.9217858,
  "tags": {
    "addr:city": "Perito Moreno",
    "addr:full": "Colon 1237",
    "addr:place": "Lago Buenos Aires",
    "addr:postcode": "9040",
    "amenity": "hospital",
    "description": "Bajo riesgo con internación simple",
    "healthcare": "hospital",
    "name": "Hospital Distrital Dr. Oscar H. Natale",
    "operator:type": "public",
    "ref:sisa_codigo": "10780352183007",
    "ref:sisa_tipologia": "ESCIG",
    "source": "sedronar.gov.ar | Public Domain (PD)"
  }
},
{
  "type": "node",
  "id": 1564930389,
  "lat": -32.3451256,
  "lon": -62.8865045,
  "tags": {
    "amenity": "hospital",
    "healthcare": "hospital"
  }
},
{
  "type": "node",
  "id": 1565511004,
  "lat": -32.1904512,
  "lon": -61.7062026,
  "tags": {
    "amenity": "hospital",
    "healthcare": "hospital"
  }
},
{
  "type": "node",
  "id": 1583166346,
  "lat": -36.7634076,
  "lon": -56.6826984,
  "tags": {
    "amenity": "hospital",
    "healthcare": "hospital",
    "name": "Sala de Primeros Auxilios"
  }
},
{
  "type": "node",
  "id": 1589583398,
  "lat": -27.4474434,
  "lon": -58.9808823,
  "tags": {
    "amenity": "hospital",
    "healthcare": "hospital",
    "name": "FemeChaco"
  }
},
{
  "type": "node",
  "id": 1599320576,
  "lat": -31.0131154,
  "lon": -62.0656167,
  "tags": {
    "addr:city": "Porteña",
    "addr:housenumber": "238",
    "addr:postcode": "2415",
    "addr:street": "Sarmiento",
    "amenity": "hospital",
    "description": "Categoría de tipología: Con atención médica diaria y con especialidades y/o otras profesiones",
    "healthcare": "hospital",
    "name": "Clinica Vivir",
    "official_name": "Centro Vivir - Consultorios Medicos",
    "phone": "+54 3564 450190",
    "ref:sisa_codigo": "50141402334799",
    "ref:sisa_tipologia": "ESSIDT"
  }
},
{
  "type": "node",
  "id": 1605949134,
  "lat": -27.4531136,
  "lon": -58.9796749,
  "tags": {
    "addr:housenumber": "266",
    "addr:street": "Avenida Italia",
    "amenity": "hospital",
    "healthcare": "hospital",
    "name": "Sanatorio La Sagrada Familia",
    "operator:type": "private",
    "ref:sisa_codigo": "10221402326800",
    "ref:sisa_tipologia": "ESCIG"
  }
},
{
  "type": "node",
  "id": 1617142070,
  "lat": -36.6581738,
  "lon": -56.6814916,
  "tags": {
    "amenity": "hospital",
    "healthcare": "hospital",
    "name": "Unidad Sanitaria"
  }
},
{
  "type": "node",
  "id": 1619045248,
  "lat": -34.1924002,
  "lon": -58.4855754,
  "tags": {
    "addr:full": "Rio Parana Mini Y Arroyo Chana S/n",
    "addr:postcode": "1646",
    "amenity": "hospital",
    "healthcare": "hospital",
    "name": "Hospital Doctor Ramon Carrillo",
    "operator": "Municipalidad",
    "operator:type": "public",
    "phone": "+54 11 4728-2434;+54 11 4728-1391;+54 11 4728-7434",
    "ref:sisa_codigo": "10067492200216",
    "ref:sisa_tipologia": "ESCIG"
  }
},
{
  "type": "node",
  "id": 1620116590,
  "lat": -32.7878310,
  "lon": -61.6039232,
  "tags": {
    "amenity": "hospital",
    "healthcare": "hospital",
    "name": "S.A.M.Co."
  }
},
{
  "type": "node",
  "id": 1653724220,
  "lat": -51.0290564,
  "lon": -70.7782408,
  "tags": {
    "amenity": "hospital",
    "healthcare": "hospital"
  }
},
{
  "type": "node",
  "id": 1654323220,
  "lat": -34.0098690,
  "lon": -63.9284967,
  "tags": {
    "amenity": "hospital",
    "healthcare": "hospital",
    "name": "Hospital Municipal Doc. Luis Rodriguez",
    "operator": "Vilma Decoberti"
  }
},
{
  "type": "node",
  "id": 1659532637,
  "lat": -32.9559401,
  "lon": -69.1956933,
  "tags": {
    "amenity": "hospital",
    "healthcare": "hospital",
    "name": "Centro de Salud Nº 34"
  }
},
{
  "type": "node",
  "id": 1666765879,
  "lat": -35.3335560,
  "lon": -61.6125588,
  "tags": {
    "amenity": "hospital",
    "emergency": "yes",
    "healthcare": "hospital",
    "name": "Sala de Primeros Auxilios"
  }
},
{
  "type": "node",
  "id": 1669301184,
  "lat": -32.6795431,
  "lon": -68.3173129,
  "tags": {
    "amenity": "hospital",
    "emergency": "yes",
    "healthcare": "hospital",
    "name": "Centro Intrgeal Comunitario"
  }
},
{
  "type": "node",
  "id": 1674481503,
  "lat": -32.7284497,
  "lon": -61.9140811,
  "tags": {
    "amenity": "hospital",
    "healthcare": "hospital"
  }
},
{
  "type": "node",
  "id": 1685136773,
  "lat": -28.5549318,
  "lon": -56.0392045,
  "tags": {
    "amenity": "hospital",
    "healthcare": "hospital",
    "name": "Hospital San Juan Bautista"
  }
},
{
  "type": "node",
  "id": 1689183402,
  "lat": -29.1418502,
  "lon": -59.6464056,
  "tags": {
    "amenity": "hospital",
    "emergency": "no",
    "healthcare": "hospital",
    "name": "Centro de Especialidades Médicas SRL"
  }
},
{
  "type": "node",
  "id": 1698682689,
  "lat": -27.3981824,
  "lon": -55.9522089,
  "tags": {
    "addr:city": "Posadas",
    "addr:country": "AR",
    "addr:housenumber": "7350",
    "addr:postcode": "3300",
    "addr:street": "Avenida Quaranta",
    "amenity": "hospital",
    "emergency": "yes",
    "healthcare": "hospital",
    "name": "Hospital De Rehabilitacion En Salud Mental - Dr. Ramon Carrillo",
    "phone": "+5 376 4458263",
    "ref:ZonaSanitaria": "Capital",
    "ref:cuie_codigo": "N05436",
    "ref:sisa_codigo": "13540282164503"
  }
},
{
  "type": "node",
  "id": 1698683341,
  "lat": -27.3986615,
  "lon": -55.9517547,
  "tags": {
    "addr:city": "Posadas",
    "addr:country": "AR",
    "addr:housenumber": "7300",
    "addr:postcode": "3300",
    "addr:street": "Avenida Quaranta",
    "alt_name": "Hospital De Enfermedades Transmisibles - Dr. Pedro Baliña",
    "amenity": "hospital",
    "description": "Hospital psiquiátrico",
    "emergency": "no",
    "healthcare": "hospital",
    "name": "Hospital De Enfermedades Transmisibles Doctor Pedro Baliña",
    "phone": "+54 376 4458248",
    "ref:ZonaSanitaria": "Capital",
    "ref:cuie_codigo": "N05435",
    "ref:sisa_codigo": "14540282164524"
  }
},
{
  "type": "node",
  "id": 1701286722,
  "lat": -34.4943013,
  "lon": -58.5466622,
  "tags": {
    "addr:city": "San Isidro",
    "addr:housenumber": "3028",
    "addr:street": "Martín Lezica",
    "amenity": "hospital",
    "designation": "Instituto Cardiovascular Lezica",
    "healthcare": "hospital",
    "name": "Instituto Cardiovascular Lezica"
  }
},
{
  "type": "node",
  "id": 1703827212,
  "lat": -33.3218933,
  "lon": -62.0412025,
  "tags": {
    "amenity": "hospital",
    "emergency": "yes",
    "healthcare": "hospital",
    "name": "Samco",
    "phone": "03468481216;03468481135"
  }
},
{
  "type": "node",
  "id": 1703827259,
  "lat": -33.3224939,
  "lon": -62.0399365,
  "tags": {
    "amenity": "hospital",
    "healthcare": "hospital",
    "name": "Clinica San Juan"
  }
},
{
  "type": "node",
  "id": 1717160527,
  "lat": -25.8924878,
  "lon": -65.9283239,
  "tags": {
    "addr:city": "San Carlos",
    "addr:full": "Gral. San Martín S/N°",
    "addr:place": "San Carlos",
    "addr:postcode": "4427",
    "amenity": "hospital",
    "description": "Bajo riesgo con internación simple",
    "healthcare": "hospital",
    "name": "Hospita San Carlos",
    "operator:type": "public",
    "ref:sisa_codigo": "10661542173034",
    "ref:sisa_tipologia": "ESCIG",
    "source": "sedronar.gov.ar | Public Domain (PD)"
  }
},
{
  "type": "node",
  "id": 1728971682,
  "lat": -27.4577634,
  "lon": -58.9819811,
  "tags": {
    "addr:housenumber": "168",
    "addr:street": "San Lorenzo",
    "amenity": "hospital",
    "healthcare": "hospital",
    "name": "FemeChaco Salud",
    "operator:type": "private",
    "ref:sisa_codigo": "10221402326078",
    "ref:sisa_tipologia": "ESCIG"
  }
},
{
  "type": "node",
  "id": 1728971716,
  "lat": -27.4578687,
  "lon": -58.9821516,
  "tags": {
    "addr:city": "Resistencia",
    "addr:full": "San Lorenzo 180",
    "addr:housenumber": "180",
    "addr:postcode": "3500",
    "addr:street": "San Lorenzo",
    "alt_name": "Sanatorio Antartida Centro Medico Para La Mujer S.r.l.",
    "amenity": "hospital",
    "healthcare": "hospital",
    "healthcare:speciality": "paediatrics",
    "name": "Sanatorio Antártida",
    "operator": "Privado",
    "operator:type": "private",
    "phone": "+54 362  442 9155",
    "ref:sisa_codigo": "10221402326072",
    "ref:sisa_tipologia": "ESCIG"
  }
},
{
  "type": "node",
  "id": 1732936044,
  "lat": -34.4516474,
  "lon": -58.7907381,
  "tags": {
    "addr:city": "Del Viso",
    "addr:postcode": "1669",
    "addr:street": "Diego Cruz",
    "amenity": "hospital",
    "healthcare": "hospital",
    "name": "Hospital Municipal"
  }
},
{
  "type": "node",
  "id": 1741070652,
  "lat": -35.9707776,
  "lon": -62.7366447,
  "tags": {
    "addr:city": "Trenque Lauquen",
    "addr:country": "AR",
    "addr:postcode": "6400",
    "addr:province": "Buenos Aires",
    "addr:state": "Buenos Aires",
    "amenity": "hospital",
    "emergency": "yes",
    "healthcare": "hospital",
    "name": "Clínica Trenque Lauquen"
  }
},
{
  "type": "node",
  "id": 1756124865,
  "lat": -32.8802415,
  "lon": -68.8521628,
  "tags": {
    "addr:city": "Mendoza",
    "addr:housenumber": "324",
    "addr:street": "Juan de Dios Videla",
    "amenity": "hospital",
    "description:es": "Instituto de Rehabilitacion",
    "healthcare": "hospital",
    "name": "Clinica Piuquen",
    "phone": "54 0261 4234044"
  }
},
{
  "type": "node",
  "id": 1763215892,
  "lat": -28.9190944,
  "lon": -65.3255279,
  "tags": {
    "addr:city": "Icaño",
    "addr:full": "Ruta Provincial 2",
    "addr:place": "La Paz",
    "addr:postcode": "5265",
    "amenity": "hospital",
    "description": "Alto riesgo con terapia intensiva especializada",
    "healthcare": "hospital",
    "name": "Establecimiento Sanitario Distrital Hospital Zonal De Icaño",
    "operator:type": "public",
    "ref:sisa_codigo": "10100702124024",
    "ref:sisa_tipologia": "ESCIG",
    "source": "sedronar.gov.ar | Public Domain (PD)"
  }
},
{
  "type": "node",
  "id": 1770657022,
  "lat": -32.4078558,
  "lon": -63.2428215,
  "tags": {
    "amenity": "hospital",
    "healthcare": "hospital",
    "name": "Asistencia Pública"
  }
},
{
  "type": "node",
  "id": 1781516017,
  "lat": -35.3900118,
  "lon": -57.3389290,
  "tags": {
    "amenity": "hospital",
    "emergency": "no",
    "healthcare": "hospital",
    "name": "Geriatrico Punta Indio"
  }
},
{
  "type": "node",
  "id": 1796556340,
  "lat": -27.6875304,
  "lon": -67.6191340,
  "tags": {
    "addr:city": "Fiambalá",
    "addr:postcode": "5345",
    "addr:street": "Diego Carrizo de Frite",
    "amenity": "hospital",
    "healthcare": "hospital"
  }
},
{
  "type": "node",
  "id": 1796556342,
  "lat": -27.6921236,
  "lon": -67.6233977,
  "tags": {
    "amenity": "hospital",
    "healthcare": "hospital"
  }
},
{
  "type": "node",
  "id": 1798544292,
  "lat": -34.2434229,
  "lon": -59.4772546,
  "tags": {
    "amenity": "hospital",
    "contact:phone": "+54 2326 45 2759; +54 2326 45 5567",
    "healthcare": "hospital",
    "name": "Hospital Municipal Emilio Zerboni"
  }
},
{
  "type": "node",
  "id": 1803194655,
  "lat": -33.0353523,
  "lon": -63.5061103,
  "tags": {
    "amenity": "hospital",
    "healthcare": "hospital",
    "name": "Hospital Regional Ucacha"
  }
},
{
  "type": "node",
  "id": 1809322912,
  "lat": -35.9742059,
  "lon": -62.7307368,
  "tags": {
    "addr:city": "Trenque Lauquen",
    "addr:country": "AR",
    "addr:postcode": "6400",
    "addr:province": "Buenos Aires",
    "addr:state": "Buenos Aires",
    "amenity": "hospital",
    "healthcare": "hospital",
    "name": "Anexo Hospital Municipal"
  }
},
{
  "type": "node",
  "id": 1838335839,
  "lat": -28.1563987,
  "lon": -65.6613766,
  "tags": {
    "amenity": "hospital",
    "healthcare": "hospital"
  }
},
{
  "type": "node",
  "id": 1841600963,
  "lat": -32.5824292,
  "lon": -61.1662044,
  "tags": {
    "addr:housenumber": "550",
    "addr:postcode": "2144",
    "addr:street": "Lavalle",
    "amenity": "hospital",
    "contact:phone": "03476-460222",
    "healthcare": "hospital",
    "name": "Samco Totoras",
    "opening_hours": "24/7",
    "wheelchair": "yes"
  }
},
{
  "type": "node",
  "id": 1849183910,
  "lat": -34.6009497,
  "lon": -58.4976141,
  "tags": {
    "amenity": "hospital",
    "healthcare": "hospital",
    "name": "Centro de Diagnóstico Parque"
  }
},
{
  "type": "node",
  "id": 1875382480,
  "lat": -32.5840733,
  "lon": -61.1638295,
  "tags": {
    "amenity": "hospital",
    "emergency": "yes",
    "healthcare": "hospital",
    "name": "Sanatorio Regional"
  }
},
{
  "type": "node",
  "id": 1875382493,
  "lat": -32.5872805,
  "lon": -61.1682414,
  "tags": {
    "amenity": "hospital",
    "healthcare": "hospital",
    "name": "Clinica 9 de julio"
  }
},
{
  "type": "node",
  "id": 1877489546,
  "lat": -33.0438709,
  "lon": -61.1631417,
  "tags": {
    "amenity": "hospital",
    "fixme": "Actualizar datos.",
    "healthcare": "hospital",
    "name": "Centro Medicos"
  }
},
{
  "type": "node",
  "id": 1877489703,
  "lat": -33.1301270,
  "lon": -64.3517772,
  "tags": {
    "amenity": "hospital",
    "healthcare": "hospital",
    "name": "HospitalNeonata"
  }
},
{
  "type": "node",
  "id": 1877489706,
  "lat": -33.0365748,
  "lon": -61.1577585,
  "tags": {
    "addr:city": "Casilda",
    "addr:housenumber": "2351",
    "addr:postcode": "S2170",
    "addr:street": "Bulevar 9 de Julio",
    "amenity": "hospital",
    "healthcare": "hospital",
    "name": "Hospital San Carlos",
    "operator": "Provincia de Santa Fe",
    "operator:type": "public",
    "phone": "+54 (3464) 42-2107"
  }
},
{
  "type": "node",
  "id": 1877489974,
  "lat": -33.0474114,
  "lon": -61.1690640,
  "tags": {
    "amenity": "hospital",
    "fixme": "Actualizar datos.",
    "healthcare": "hospital",
    "name": "Sanatorio Regional"
  }
},
{
  "type": "node",
  "id": 1877489983,
  "lat": -33.0443005,
  "lon": -61.1735674,
  "tags": {
    "amenity": "hospital",
    "fixme": "Actualizar datos.",
    "healthcare": "hospital",
    "name": "Sanatorio Uom"
  }
},
{
  "type": "node",
  "id": 1877490001,
  "lat": -33.1308405,
  "lon": -64.3519931,
  "tags": {
    "amenity": "hospital",
    "healthcare": "hospital",
    "name": "Suiza"
  }
},
{
  "type": "node",
  "id": 1877668624,
  "lat": -32.4079299,
  "lon": -63.2413816,
  "tags": {
    "amenity": "hospital",
    "healthcare": "hospital",
    "name": "Bockus - Centro Salud Digestiva"
  }
},
{
  "type": "node",
  "id": 1877668626,
  "lat": -32.4075199,
  "lon": -63.2423552,
  "tags": {
    "amenity": "hospital",
    "healthcare": "hospital",
    "name": "Clínica Doctor Gregorio Marañón"
  }
},
{
  "type": "node",
  "id": 1877668628,
  "lat": -32.4090704,
  "lon": -63.2424013,
  "tags": {
    "addr:city": "Villa María",
    "addr:housenumber": "1280",
    "addr:postcode": "5900",
    "addr:street": "Santa Fé",
    "amenity": "hospital",
    "healthcare": "hospital",
    "name": "INEDI - Instituto de Neurociencias del Desarrollo Integral",
    "phone": "+54 0353 4527631",
    "website": "http://www.institutoinedi.com",
    "wheelchair": "yes"
  }
},
{
  "type": "node",
  "id": 1877668650,
  "lat": -32.4085428,
  "lon": -63.2407994,
  "tags": {
    "amenity": "hospital",
    "healthcare": "hospital",
    "name": "Clínica Fusavim"
  }
},
{
  "type": "node",
  "id": 1877668652,
  "lat": -32.4083557,
  "lon": -63.2445145,
  "tags": {
    "amenity": "hospital",
    "healthcare": "hospital",
    "name": "Clínica Privada del Niño"
  }
},
{
  "type": "node",
  "id": 1877668655,
  "lat": -32.4142677,
  "lon": -63.2461131,
  "tags": {
    "amenity": "hospital",
    "emergency": "yes",
    "healthcare": "hospital",
    "name": "Clínica de Especialidades"
  }
},
{
  "type": "node",
  "id": 1877747372,
  "lat": -31.7648001,
  "lon": -61.3226174,
  "tags": {
    "amenity": "hospital",
    "healthcare": "hospital",
    "name": "Clinica Santa Clara"
  }
},
{
  "type": "node",
  "id": 1877747423,
  "lat": -31.7630295,
  "lon": -61.3169794,
  "tags": {
    "addr:city": "Santa Clara de Buena Vista",
    "addr:housenumber": "450",
    "addr:postcode": "S2258",
    "addr:street": "Coronel Dominguez",
    "amenity": "hospital",
    "emergency": "yes",
    "healthcare": "hospital",
    "name": "Samco"
  }
},
{
  "type": "node",
  "id": 1877874956,
  "lat": -32.0183835,
  "lon": -61.2270427,
  "tags": {
    "addr:city": "Gálvez",
    "addr:housenumber": "1551",
    "addr:postcode": "S2252",
    "addr:street": "Mitre",
    "alt_name": "SAMCo Gálvez",
    "amenity": "hospital",
    "email": "contaduriasamcogalvez@cegnet.com.ar",
    "healthcare": "hospital",
    "name": "SAMCo Doctor Alfredo Baetti",
    "operator": "Provincia de Santa Fe",
    "operator:type": "public",
    "phone": "+54 3404 48-0391"
  }
},
{
  "type": "node",
  "id": 1877875042,
  "lat": -32.0322894,
  "lon": -61.2187081,
  "tags": {
    "addr:city": "Gálvez",
    "addr:housenumber": "303",
    "addr:postcode": "S2252",
    "addr:street": "Sarmiento",
    "amenity": "hospital",
    "emergency": "yes",
    "healthcare": "hospital",
    "healthcare:speciality": "emergency;internist;radiology",
    "name": "Sanatorios Integrados",
    "operator:type": "private",
    "phone": "+54 3404 48-0423"
  }
},
{
  "type": "node",
  "id": 1892893208,
  "lat": -33.8049244,
  "lon": -61.3346978,
  "tags": {
    "addr:city": "Hughes",
    "addr:postcode": "S2725",
    "addr:street": "Francisco Laprida",
    "amenity": "hospital",
    "healthcare": "hospital",
    "name": "Samco",
    "phone": "+54 02473 491520"
  }
},
{
  "type": "node",
  "id": 1892914034,
  "lat": -33.7099255,
  "lon": -61.3096536,
  "tags": {
    "amenity": "hospital",
    "healthcare": "hospital",
    "name": "Samco"
  }
},
{
  "type": "node",
  "id": 1892953862,
  "lat": -33.5972848,
  "lon": -61.3101353,
  "tags": {
    "amenity": "hospital",
    "healthcare": "hospital",
    "name": "Samco"
  }
},
{
  "type": "node",
  "id": 1892996234,
  "lat": -33.4613376,
  "lon": -61.4930082,
  "tags": {
    "amenity": "hospital",
    "healthcare": "hospital",
    "name": "Clinica 25 de Sptiembre"
  }
},
{
  "type": "node",
  "id": 1893138233,
  "lat": -33.3492301,
  "lon": -61.4449417,
  "tags": {
    "amenity": "hospital",
    "healthcare": "hospital",
    "name": "Samco"
  }
},
{
  "type": "node",
  "id": 1893356680,
  "lat": -33.2479427,
  "lon": -61.3610841,
  "tags": {
    "addr:city": "Chabás",
    "addr:housenumber": "1296",
    "addr:postcode": "S2173",
    "addr:street": "Bulevar Roque Sáenz Peña",
    "amenity": "hospital",
    "healthcare": "hospital",
    "name": "Hospital Samco Maria Eva Duarte"
  }
},
{
  "type": "node",
  "id": 1894530589,
  "lat": -32.4607749,
  "lon": -61.2915040,
  "tags": {
    "amenity": "hospital",
    "healthcare": "hospital",
    "name": "Samco"
  }
},
{
  "type": "node",
  "id": 1899220607,
  "lat": -26.8000677,
  "lon": -66.0687779,
  "tags": {
    "amenity": "hospital",
    "healthcare": "hospital",
    "name": "Hospital San José"
  }
},
{
  "type": "node",
  "id": 1903130642,
  "lat": -30.9257345,
  "lon": -64.5042474,
  "tags": {
    "amenity": "hospital",
    "emergency": "no",
    "healthcare": "hospital",
    "name": "Sala De Salud"
  }
},
{
  "type": "node",
  "id": 1904515547,
  "lat": -36.3402304,
  "lon": -56.7474872,
  "tags": {
    "amenity": "hospital",
    "healthcare": "hospital",
    "layer": "3",
    "name": "Enfermería"
  }
},
{
  "type": "node",
  "id": 1913116575,
  "lat": -32.9358797,
  "lon": -68.8739175,
  "tags": {
    "amenity": "hospital",
    "emergency": "no",
    "healthcare": "hospital",
    "name": "Centro de Salud N°2 Foecyt",
    "opening_hours": "Mo-Fr 07:00-19:00",
    "phone": "+54 0261 4222060"
  }
},
{
  "type": "node",
  "id": 1916541552,
  "lat": -31.1126104,
  "lon": -60.5820468,
  "tags": {
    "amenity": "hospital",
    "healthcare": "hospital"
  }
},
{
  "type": "node",
  "id": 1920813156,
  "lat": -46.5483178,
  "lon": -71.6257856,
  "tags": {
    "addr:city": "Los Antiguos",
    "addr:full": "Patagonia Argentina 98",
    "addr:place": "Lago Buenos Aires",
    "addr:postcode": "9041",
    "amenity": "hospital",
    "description": "Bajo riesgo con internación simple",
    "healthcare": "hospital",
    "name": "Hospital Seccional Los Antiguos Dr. Reinaldo Bimbi",
    "operator:type": "public",
    "ref:sisa_codigo": "10780352183016",
    "ref:sisa_tipologia": "ESCIG",
    "source": "sedronar.gov.ar | Public Domain (PD)"
  }
},
{
  "type": "node",
  "id": 1925773088,
  "lat": -27.1761064,
  "lon": -60.6333196,
  "tags": {
    "amenity": "hospital",
    "healthcare": "hospital",
    "name": "Puesto Sanitario A"
  }
},
{
  "type": "node",
  "id": 1931690647,
  "lat": -27.5208492,
  "lon": -60.3919487,
  "tags": {
    "amenity": "hospital",
    "healthcare": "hospital",
    "name": "Centro De Salud"
  }
},
{
  "type": "node",
  "id": 1933580320,
  "lat": -27.4235666,
  "lon": -61.4776683,
  "tags": {
    "amenity": "hospital",
    "healthcare": "hospital",
    "name": "Hospital Enrique Acerbo"
  }
},
{
  "type": "node",
  "id": 1933583542,
  "lat": -26.9531477,
  "lon": -60.2065306,
  "tags": {
    "addr:city": "Colonia Aborígen Chaco",
    "addr:postcode": "3534",
    "amenity": "hospital",
    "healthcare": "hospital",
    "name": "Hospital Colonia Aborígen"
  }
},
{
  "type": "node",
  "id": 1933585771,
  "lat": -27.2737198,
  "lon": -59.1524315,
  "tags": {
    "amenity": "hospital",
    "healthcare": "hospital"
  }
},
{
  "type": "node",
  "id": 1940659708,
  "lat": -31.8205013,
  "lon": -64.3905674,
  "tags": {
    "amenity": "hospital",
    "healthcare": "hospital"
  }
},
{
  "type": "node",
  "id": 1943176031,
  "lat": -26.7000669,
  "lon": -59.6314486,
  "tags": {
    "amenity": "hospital",
    "healthcare": "hospital",
    "name": "Hospital Rivadavia"
  }
},
{
  "type": "node",
  "id": 1950710738,
  "lat": -27.1032854,
  "lon": -59.4463440,
  "tags": {
    "addr:city": "La Escondida",
    "addr:full": "Planta Urbana Sin Numero",
    "addr:postcode": "3514",
    "alt_name": "Hospital La Escondida",
    "amenity": "hospital",
    "healthcare": "hospital",
    "name": "Hospital Doctor Carlos A. Delgado",
    "operator": "Provincial",
    "operator:type": "public",
    "phone": "+54 362 4499004",
    "ref:sisa_codigo": "10220562126037",
    "ref:sisa_tipologia": "ESCIG"
  }
},
{
  "type": "node",
  "id": 1965540823,
  "lat": -36.0149632,
  "lon": -59.0954191,
  "tags": {
    "amenity": "hospital",
    "healthcare": "hospital"
  }
},
{
  "type": "node",
  "id": 1977405993,
  "lat": -34.0022686,
  "lon": -61.6118020,
  "tags": {
    "addr:city": "Villa Cañás",
    "addr:postcode": "S2607",
    "addr:street": "Avenida 59",
    "amenity": "hospital",
    "emergency": "yes",
    "healthcare": "hospital",
    "name": "S.A.M.Co. - Servicio de Asistencia Médica a la Comunidad",
    "phone": "03462-450245",
    "wheelchair": "yes"
  }
},
{
  "type": "node",
  "id": 1978230116,
  "lat": -24.2078403,
  "lon": -65.2850616,
  "tags": {
    "addr:city": "San Salvador de Jujuy",
    "addr:housenumber": "1699",
    "addr:postcode": "4600",
    "addr:street": "Monteagudo",
    "amenity": "hospital",
    "emergency": "yes",
    "healthcare": "hospital",
    "name": "CAPS Centro de Salud Coronel Arias"
  }
},
{
  "type": "node",
  "id": 1981207891,
  "lat": -28.2224578,
  "lon": -66.1444487,
  "tags": {
    "amenity": "hospital",
    "healthcare": "hospital",
    "name": "Posta Sanitaria Rincon"
  }
},
{
  "type": "node",
  "id": 2001612190,
  "lat": -32.9105050,
  "lon": -68.8265330,
  "tags": {
    "addr:postcode": "5519",
    "amenity": "hospital",
    "healthcare": "hospital",
    "name": "Centro de Salud N°15",
    "phone": "54 0261 4311918"
  }
},
{
  "type": "node",
  "id": 2009322595,
  "lat": -35.1820503,
  "lon": -59.0943580,
  "tags": {
    "amenity": "hospital",
    "emergency": "yes",
    "healthcare": "hospital",
    "name": "Sanatorio Lobos"
  }
},
{
  "type": "node",
  "id": 2015823030,
  "lat": -26.3411337,
  "lon": -60.3342319,
  "tags": {
    "amenity": "hospital",
    "name": "Centro De Salud"
  }
},
{
  "type": "node",
  "id": 2015823264,
  "lat": -26.8969083,
  "lon": -60.4551888,
  "tags": {
    "amenity": "hospital",
    "name": "Puesto Sanitario B Bajo Hondo Chico"
  }
},
{
  "type": "node",
  "id": 2015823953,
  "lat": -27.3300855,
  "lon": -61.2783909,
  "tags": {
    "addr:city": "General Pinedo",
    "addr:full": "Calle 23 y 8",
    "addr:postcode": "3732",
    "addr:street": "Bulevar Soldado Díaz",
    "amenity": "hospital",
    "healthcare": "hospital",
    "name": "Hospital Isaac Wasman",
    "phone": "+54 3731 480113",
    "ref:sisa_codigo": "10220362126060",
    "ref:sisa_tipologia": "ESCIG"
  }
},
{
  "type": "node",
  "id": 2017264652,
  "lat": -27.6040926,
  "lon": -61.3457572,
  "tags": {
    "addr:city": "Hermoso Campo",
    "addr:full": "Antonio Di Rocco 145",
    "addr:postcode": "3733",
    "addr:street": "Avenida Gines Sanchez",
    "amenity": "hospital",
    "healthcare": "hospital",
    "name": "Hospital Doctor Artemio Zeno",
    "official_name": "Hospital Dr. Artemio Zeno",
    "phone": "+54 3735 495136",
    "ref:sisa_codigo": "10220392126034",
    "ref:sisa_tipologia": "ESCIG"
  }
},
{
  "type": "node",
  "id": 2017264987,
  "lat": -27.4859639,
  "lon": -61.3225722,
  "tags": {
    "amenity": "hospital",
    "name": "Sala Primeros Auxilios"
  }
},
{
  "type": "node",
  "id": 2017555917,
  "lat": -27.0814425,
  "lon": -61.0829166,
  "tags": {
    "amenity": "hospital",
    "healthcare": "hospital",
    "name": "Hospital 9 De Julio"
  }
},
{
  "type": "node",
  "id": 2021202407,
  "lat": -27.4488573,
  "lon": -58.9766800,
  "tags": {
    "addr:city": "Resistencia",
    "addr:housenumber": "421",
    "addr:street": "Córdoba",
    "amenity": "hospital",
    "healthcare": "hospital",
    "name": "Sanatorio Palacio",
    "operator:type": "private",
    "ref:sisa_codigo": "10221402326087",
    "ref:sisa_tipologia": "ESCIG"
  }
},
{
  "type": "node",
  "id": 2023168223,
  "lat": -27.4292803,
  "lon": -58.8463676,
  "tags": {
    "amenity": "hospital",
    "name": "Sala Primeros Auxilios Antequeras"
  }
},
{
  "type": "node",
  "id": 2023698988,
  "lat": -26.5369095,
  "lon": -59.3302670,
  "tags": {
    "addr:city": "General Jose de San Martín",
    "addr:full": "Uruguay Y Ruta 90 S/n",
    "addr:postcode": "3509",
    "addr:street": "Uruguay",
    "amenity": "hospital",
    "emergency": "yes",
    "healthcare": "hospital",
    "name": "Hospital Felix Anselmo Pertile",
    "operator": "Provincial",
    "operator:type": "public",
    "phone": "+54 3725 420019",
    "ref:sisa_codigo": "10220842126052",
    "ref:sisa_tipologia": "ESCIG"
  }
},
{
  "type": "node",
  "id": 2025905845,
  "lat": -24.1193798,
  "lon": -65.4015350,
  "tags": {
    "amenity": "hospital",
    "healthcare": "hospital",
    "name": "Sala de Primeros Auxilios"
  }
},
{
  "type": "node",
  "id": 2028010206,
  "lat": -27.2558695,
  "lon": -60.8693433,
  "tags": {
    "amenity": "hospital",
    "name": "Puesto Sanitario"
  }
},
{
  "type": "node",
  "id": 2035709830,
  "lat": -27.1136163,
  "lon": -60.5876084,
  "tags": {
    "amenity": "hospital",
    "healthcare": "hospital",
    "name": "Hospital La Tigra"
  }
},
{
  "type": "node",
  "id": 2037066690,
  "lat": -53.7707137,
  "lon": -67.7099186,
  "tags": {
    "addr:city": "Río Grande",
    "addr:full": "Cordoba 784",
    "addr:housenumber": "748",
    "addr:postcode": "9420",
    "addr:street": "Córdoba",
    "amenity": "hospital",
    "description": "Otros teléfonos: +54 2964 427121 +54 2964 426528 +54 2964 425086 +54 2964 427441",
    "email": "info@sanatoriofueguino.com",
    "healthcare": "hospital",
    "name": "Clinica Sanatorio Fueguino Del Bicentenario",
    "opening_hours": "Mo-Sa 08:00-20:00",
    "operator": "Privado",
    "operator:type": "private",
    "phone": "(02964) 425017/432068",
    "ref:sisa_codigo": "10940072395004",
    "ref:sisa_tipologia": "ESCIG",
    "website": "http://sanatoriofueguino.com/",
    "wheelchair": "yes"
  }
},
{
  "type": "node",
  "id": 2046241305,
  "lat": -38.9785023,
  "lon": -67.8233569,
  "tags": {
    "amenity": "hospital",
    "healthcare": "hospital",
    "name": "Sanatorio"
  }
},
{
  "type": "node",
  "id": 2052955367,
  "lat": -27.3935073,
  "lon": -61.1013436,
  "tags": {
    "amenity": "hospital",
    "healthcare": "hospital",
    "name": "Puesto Sanitario B Pampa Landriel"
  }
},
{
  "type": "node",
  "id": 2054563837,
  "lat": -31.9845971,
  "lon": -64.5627235,
  "tags": {
    "amenity": "hospital",
    "healthcare": "hospital",
    "name": "Asistencia Medica"
  }
},
{
  "type": "node",
  "id": 2059983207,
  "lat": -32.8629540,
  "lon": -68.7446849,
  "tags": {
    "addr:city": "Guaymallen (El Sauce)",
    "addr:full": "Alfonso Xiii S/N, Guaymallen",
    "addr:place": "Guaymallen",
    "addr:postcode": "5533",
    "amenity": "hospital",
    "description": "Mediano riesgo con internación con cuidados especiales",
    "healthcare": "hospital",
    "name": "Hospital El Sauce - Guaymallen",
    "operator:type": "public",
    "phone": "+54 0261 4511151; 4511418",
    "ref:sisa_codigo": "13500282157061",
    "ref:sisa_tipologia": "ESCIESM",
    "source": "sedronar.gov.ar | Public Domain (PD)"
  }
},
{
  "type": "node",
  "id": 2061034785,
  "lat": -28.4818579,
  "lon": -65.7762214,
  "tags": {
    "addr:housename": "702",
    "addr:street": "Pasaje Bem Malbran",
    "amenity": "hospital",
    "craft": "blacksmith",
    "healthcare": "hospital",
    "name": "Herrero Hector Villalba;Posta Sanitaria"
  }
},
{
  "type": "node",
  "id": 2063107849,
  "lat": -24.6068492,
  "lon": -65.3844021,
  "tags": {
    "addr:city": "La Caldera",
    "addr:full": "B° El Jardin",
    "addr:place": "La Caldera",
    "addr:postcode": "4425",
    "amenity": "hospital",
    "description": "Bajo riesgo con internación simple",
    "healthcare": "hospital",
    "name": "Hospital Base Enfermera Corina Adela Bustamante",
    "operator:type": "public",
    "ref:sisa_codigo": "10660772173052",
    "ref:sisa_tipologia": "ESCIG",
    "source": "sedronar.gov.ar | Public Domain (PD)"
  }
},
{
  "type": "node",
  "id": 2063107854,
  "lat": -24.6021266,
  "lon": -65.3792539,
  "tags": {
    "amenity": "hospital",
    "healthcare": "hospital"
  }
},
{
  "type": "node",
  "id": 2073750907,
  "lat": -37.6408754,
  "lon": -59.3874937,
  "tags": {
    "amenity": "hospital",
    "healthcare": "hospital",
    "name": "Sala de primeros auxilios"
  }
},
{
  "type": "node",
  "id": 2076566414,
  "lat": -34.4758814,
  "lon": -58.6639099,
  "tags": {
    "addr:city": "El Talar",
    "addr:full": "Ruta 197 y Panamericana",
    "addr:housenumber": "197",
    "addr:postcode": "1617",
    "addr:street": "Colectora Panamericana Oeste",
    "amenity": "hospital",
    "email": "secretaria@centromedicotalar.com",
    "healthcare": "hospital",
    "name": "Centro Médico Talar",
    "operator": "Privado",
    "operator:type": "private",
    "phone": "+54 11 4740 0577",
    "ref:sisa_codigo": "10068052300013",
    "ref:sisa_tipologia": "ESCIG",
    "website": "http://www.centromedicotalar.com/"
  }
},
{
  "type": "node",
  "id": 2077401333,
  "lat": -25.4089937,
  "lon": -60.4495602,
  "tags": {
    "addr:full": "Planta Urbana Sin Numero",
    "addr:postcode": "3703",
    "alt_name": "Puesto Sanitario A El Espinillo",
    "amenity": "hospital",
    "emergency": "yes",
    "healthcare": "hospital",
    "healthcare:speciality": "general",
    "name": "Hospital El Espinillo",
    "operator": "Provincial",
    "operator:type": "public",
    "phone": "+54 364 4369099",
    "ref:sisa_codigo": "10220632126050",
    "ref:sisa_tipologia": "ESCIG"
  }
},
{
  "type": "node",
  "id": 2083515187,
  "lat": -24.7918506,
  "lon": -65.4159506,
  "tags": {
    "amenity": "hospital",
    "healthcare": "hospital",
    "name": "Clínica Santa Clara de Asís"
  }
},
{
  "type": "node",
  "id": 2085783025,
  "lat": -31.4018882,
  "lon": -68.4900090,
  "tags": {
    "amenity": "hospital",
    "emergency": "no",
    "healthcare": "hospital",
    "name": "CAPS Las Lomitas"
  }
},
{
  "type": "node",
  "id": 2104981129,
  "lat": -28.2128791,
  "lon": -65.8769397,
  "tags": {
    "amenity": "hospital"
  }
},
{
  "type": "node",
  "id": 2107372549,
  "lat": -31.4189955,
  "lon": -64.1707619,
  "tags": {
    "addr:city": "Córdoba",
    "addr:full": "Leon Morra 160",
    "addr:housenumber": "160",
    "addr:postcode": "5864",
    "addr:street": "León Morra",
    "amenity": "hospital",
    "healthcare": "hospital",
    "name": "Hospital Neuropsiquiátrico",
    "operator": "Provincial",
    "operator:type": "public",
    "phone": "+54 351 4342426",
    "ref:sisa_codigo": "13140142131360",
    "ref:sisa_tipologia": "ESCIESM"
  }
},
{
  "type": "node",
  "id": 2116146674,
  "lat": -31.4392177,
  "lon": -68.5198729,
  "tags": {
    "amenity": "hospital",
    "emergency": "no",
    "healthcare": "hospital"
  }
},
{
  "type": "node",
  "id": 2117188829,
  "lat": -25.6903543,
  "lon": -66.1672050,
  "tags": {
    "addr:city": "Angastaco",
    "addr:full": "Angastaco",
    "addr:place": "San Carlos",
    "addr:postcode": "4405",
    "amenity": "hospital",
    "description": "Mediano riesgo con internación con cuidados especiales",
    "healthcare": "hospital",
    "name": "Hospital Nuestra Señora Del Valle De Angastaco",
    "operator:type": "public",
    "ref:sisa_codigo": "10661542173603",
    "ref:sisa_tipologia": "ESCIG",
    "source": "sedronar.gov.ar | Public Domain (PD)"
  }
},
{
  "type": "node",
  "id": 2127242885,
  "lat": -29.0927507,
  "lon": -56.5499502,
  "tags": {
    "addr:city": "Alvear",
    "addr:housenumber": "1248",
    "addr:postcode": "3344",
    "addr:street": "Manuel Belgrano",
    "amenity": "hospital",
    "emergency": "yes",
    "fax": "+54 03772 470128",
    "healthcare": "hospital",
    "name": "Hospital Doctor Miguel Sussini",
    "operator": "Hospital Doctor Miguel Sussini",
    "phone": "+54 3772 470005;+54 3772 470011"
  }
},
{
  "type": "node",
  "id": 2127383835,
  "lat": -35.6380198,
  "lon": -59.7711751,
  "tags": {
    "addr:city": "Saladillo",
    "addr:housenumber": "2800",
    "addr:postcode": "7260",
    "addr:street": "Doctor Francisco Emparanza",
    "amenity": "hospital",
    "emergency": "yes",
    "healthcare": "hospital",
    "name": "Dr. Alejandro Posadas",
    "phone": "+54 (2344) 43-2894"
  }
},
{
  "type": "node",
  "id": 2128375817,
  "lat": -27.6466905,
  "lon": -67.0297196,
  "tags": {
    "addr:city": "Belen",
    "addr:full": "Calchaqui Esquina Mitre",
    "addr:place": "Belen",
    "addr:postcode": "4750",
    "amenity": "hospital",
    "description": "Bajo riesgo con internación simple",
    "healthcare": "hospital",
    "name": "Hospital Sanitario Zonal De Belen Dr. Segundo Muñiz",
    "operator:type": "public",
    "ref:sisa_codigo": "10100352124030",
    "ref:sisa_tipologia": "ESCIG",
    "source": "sedronar.gov.ar | Public Domain (PD)"
  }
},
{
  "type": "node",
  "id": 2130944952,
  "lat": -24.2191257,
  "lon": -66.3225236,
  "tags": {
    "addr:city": "San Antonio de los Cobres",
    "addr:full": "Carlos Pellegrini S/N - San Antonio De Los Cobres",
    "addr:place": "Los Andes",
    "addr:postcode": "4411",
    "addr:street": "Carlos Pellegrini",
    "amenity": "hospital",
    "description": "Bajo riesgo con internación simple",
    "healthcare": "hospital",
    "name": "Hospital Dr. Nicolas Cayetano Pagano",
    "operator:type": "public",
    "phone": "+54 0387 4909022",
    "ref:sisa_codigo": "10661052173045",
    "ref:sisa_tipologia": "ESCIG",
    "source": "sedronar.gov.ar | Public Domain (PD)"
  }
},
{
  "type": "node",
  "id": 2132059361,
  "lat": -23.5758208,
  "lon": -65.3952780,
  "tags": {
    "addr:city": "Tilcara",
    "addr:country": "AR",
    "addr:full": "Lavalle 552",
    "addr:place": "Tilcara",
    "addr:street": "Lavalle",
    "amenity": "hospital",
    "description": "Bajo riesgo con internación simple",
    "healthcare": "hospital",
    "name": "Hospital Doctor Salvador Mazza",
    "operator:type": "public",
    "ref:sisa_codigo": "10380942150014",
    "ref:sisa_tipologia": "ESCIG",
    "source": "sedronar.gov.ar | Public Domain (PD)"
  }
},
{
  "type": "node",
  "id": 2135293845,
  "lat": -24.4382657,
  "lon": -63.9941412,
  "tags": {
    "addr:city": "Apolinario Saravia",
    "addr:full": "Pje. Peyrotti 179 - Apolinario Saravia",
    "addr:place": "Anta",
    "addr:postcode": "4449",
    "addr:street": "Martin Miguel de Güemes",
    "amenity": "hospital",
    "description": "Bajo riesgo con internación simple",
    "emergency": "yes",
    "healthcare": "hospital",
    "name": "Hospital Doctor Mario Villafañe",
    "operator:type": "public",
    "ref:sisa_codigo": "10660072173048",
    "ref:sisa_tipologia": "ESCIG",
    "source": "sedronar.gov.ar | Public Domain (PD)"
  }
},
{
  "type": "node",
  "id": 2145279671,
  "lat": -23.7785588,
  "lon": -64.7712977,
  "tags": {
    "addr:city": "Calilegua",
    "addr:full": "San Lorenzo S/N",
    "addr:place": "Ledesma",
    "amenity": "hospital",
    "description": "Alto riesgo con terapia intensiva",
    "healthcare": "hospital",
    "name": "Hospital de Calilegua",
    "operator:type": "public",
    "ref:sisa_codigo": "10380352150016",
    "ref:sisa_tipologia": "ESCIG",
    "source": "sedronar.gov.ar | Public Domain (PD)"
  }
},
{
  "type": "node",
  "id": 2145360203,
  "lat": -34.8669969,
  "lon": -61.5461442,
  "tags": {
    "amenity": "hospital",
    "emergency": "yes",
    "healthcare": "hospital",
    "name": "Hospital de Lincoln Dr. Rubén O. Miravalle"
  }
},
{
  "type": "node",
  "id": 2155385567,
  "lat": -46.4390379,
  "lon": -67.5310230,
  "tags": {
    "amenity": "hospital",
    "emergency": "yes",
    "healthcare": "hospital",
    "name": "Hospital Meprisa"
  }
},
{
  "type": "node",
  "id": 2156023586,
  "lat": -46.4543826,
  "lon": -67.5273419,
  "tags": {
    "amenity": "hospital",
    "healthcare": "hospital",
    "name": "CIC Gregores"
  }
},
{
  "type": "node",
  "id": 2156135738,
  "lat": -46.4473372,
  "lon": -67.5390135,
  "tags": {
    "amenity": "hospital",
    "emergency": "yes",
    "healthcare": "hospital",
    "name": "CIC San Cayetano"
  }
},
{
  "type": "node",
  "id": 2156506444,
  "lat": -37.5065504,
  "lon": -61.9212515,
  "tags": {
    "amenity": "hospital",
    "emergency": "yes",
    "healthcare": "hospital",
    "name": "Sala de primeros auxilios"
  }
},
{
  "type": "node",
  "id": 2157691107,
  "lat": -46.4426879,
  "lon": -67.5114978,
  "tags": {
    "amenity": "hospital",
    "healthcare": "hospital",
    "name": "Clinica Santa Cruz"
  }
},
{
  "type": "node",
  "id": 2157691290,
  "lat": -46.4471599,
  "lon": -67.5599807,
  "tags": {
    "alt_name": "CIC Rotary XXIII",
    "amenity": "hospital",
    "healthcare": "hospital",
    "name": "CIC Jorge Cépernic"
  }
},
{
  "type": "node",
  "id": 2157691293,
  "lat": -46.4646366,
  "lon": -67.5183824,
  "tags": {
    "amenity": "hospital",
    "healthcare": "hospital",
    "name": "CIC Emilio Papousek"
  }
},
{
  "type": "node",
  "id": 2164900141,
  "lat": -28.4967140,
  "lon": -63.8183289,
  "tags": {
    "addr:city": "Villa Atamisqui",
    "addr:full": "Av. 25 De Mayo Y Rivadavia",
    "addr:place": "Atamisqui",
    "addr:postcode": "4317",
    "addr:street": "Av. 25 de Mayo",
    "amenity": "hospital",
    "description": "Alto riesgo con terapia intensiva",
    "healthcare": "hospital",
    "name": "Hospital Distrital Villa Atamisqui",
    "operator:type": "public",
    "ref:sisa_codigo": "10860212192046",
    "ref:sisa_tipologia": "ESCIG",
    "source": "sedronar.gov.ar | Public Domain (PD)"
  }
},
{
  "type": "node",
  "id": 2173755468,
  "lat": -34.8853763,
  "lon": -58.0182948,
  "tags": {
    "amenity": "hospital",
    "fixme": "Esto es de juguete. Ver como mapearlo.",
    "name": "Enfermería"
  }
},
{
  "type": "node",
  "id": 2184190009,
  "lat": -46.5467036,
  "lon": -68.9422442,
  "tags": {
    "amenity": "hospital",
    "healthcare": "hospital",
    "name": "CIC Las Heras"
  }
},
{
  "type": "node",
  "id": 2187553174,
  "lat": -42.0633905,
  "lon": -71.5205183,
  "tags": {
    "addr:city": "El Hoyo",
    "addr:full": "Islas Malvinas",
    "addr:place": "Cushamen",
    "addr:postcode": "8431",
    "amenity": "hospital",
    "description": "Bajo riesgo con internación simple",
    "emergency": "yes",
    "healthcare": "hospital",
    "name": "Hospital Rural El Hoyo",
    "operator:type": "public",
    "ref:sisa_codigo": "10260142129020",
    "ref:sisa_tipologia": "ESCIG",
    "source": "sedronar.gov.ar | Public Domain (PD)"
  }
},
{
  "type": "node",
  "id": 2191464991,
  "lat": -46.4494871,
  "lon": -67.5110176,
  "tags": {
    "amenity": "hospital",
    "healthcare": "hospital",
    "name": "CIC Virgen del Valle"
  }
},
{
  "type": "node",
  "id": 2191492819,
  "lat": -46.4463313,
  "lon": -67.5212407,
  "tags": {
    "amenity": "hospital",
    "healthcare": "hospital",
    "name": "E.M.C.O."
  }
},
{
  "type": "node",
  "id": 2191879117,
  "lat": -46.4570399,
  "lon": -67.5475833,
  "tags": {
    "amenity": "hospital",
    "healthcare": "hospital",
    "name": "CIC Centenario"
  }
},
{
  "type": "node",
  "id": 2198026753,
  "lat": -35.0801263,
  "lon": -57.7479029,
  "tags": {
    "addr:city": "General Mansilla",
    "addr:postcode": "1911",
    "addr:street": "25 de Mayo",
    "amenity": "hospital",
    "emergency": "no",
    "healthcare": "hospital",
    "name": "Sala de primeros auxilios"
  }
},
{
  "type": "node",
  "id": 2198217295,
  "lat": -46.4377959,
  "lon": -67.5170424,
  "tags": {
    "amenity": "hospital",
    "healthcare": "hospital",
    "name": "CIC Centro"
  }
},
{
  "type": "node",
  "id": 2200311043,
  "lat": -32.1937876,
  "lon": -64.2494776,
  "tags": {
    "amenity": "hospital",
    "healthcare": "hospital"
  }
},
{
  "type": "node",
  "id": 2209220338,
  "lat": -34.7649799,
  "lon": -59.6925677,
  "tags": {
    "addr:city": "Suipacha",
    "addr:postcode": "6612",
    "addr:street": "Doctor Cusa",
    "amenity": "hospital",
    "healthcare": "hospital",
    "name": "Hospital Esteban Iribarne",
    "phone": "+54 (2324) 48-0006"
  }
},
{
  "type": "node",
  "id": 2229508175,
  "lat": -34.8149728,
  "lon": -58.2716602,
  "tags": {
    "addr:full": "General Juan M. De Pueyrredón 396",
    "addr:postcode": "1888",
    "amenity": "hospital",
    "healthcare": "hospital",
    "name": "Sanatorio Santa Clara Florencio Varela",
    "operator": "Privado",
    "operator:type": "private",
    "phone": "(011) 4255-0239",
    "ref:sisa_codigo": "10062742300160",
    "ref:sisa_tipologia": "ESCIG"
  }
},
{
  "type": "node",
  "id": 2234847853,
  "lat": -24.9725292,
  "lon": -65.4902219,
  "tags": {
    "addr:city": "La Merced",
    "addr:full": "Hipolito Yrigoyen N°958 - La Merced",
    "addr:place": "Cerrillos",
    "addr:postcode": "4421",
    "amenity": "hospital",
    "description": "Bajo riesgo con internación simple",
    "healthcare": "hospital",
    "name": "Hospital Doctor Nicolás Lozano",
    "operator:type": "public",
    "ref:sisa_codigo": "10660352173046",
    "ref:sisa_tipologia": "ESCIG",
    "source": "sedronar.gov.ar | Public Domain (PD)"
  }
},
{
  "type": "node",
  "id": 2236232881,
  "lat": -24.9838115,
  "lon": -65.5783191,
  "tags": {
    "addr:city": "Rosario De Lerma",
    "addr:full": "Mariano Moreno N°19",
    "addr:housenumber": "19",
    "addr:place": "Rosario De Lerma",
    "addr:postcode": "4405",
    "amenity": "hospital",
    "description": "Bajo riesgo con internación simple",
    "healthcare": "hospital",
    "name": "Hospital Joaquín Corbalán",
    "operator:type": "public",
    "ref:sisa_codigo": "10661472173057",
    "ref:sisa_tipologia": "ESCIG",
    "source": "sedronar.gov.ar | Public Domain (PD)"
  }
},
{
  "type": "node",
  "id": 2241421541,
  "lat": -24.9048443,
  "lon": -65.4834673,
  "tags": {
    "addr:city": "Cerrillos",
    "addr:full": "Libertad N°352 - Cerrillos",
    "addr:housenumber": "352",
    "addr:place": "Cerrillos",
    "addr:postcode": "4403",
    "amenity": "hospital",
    "description": "Bajo riesgo con internación simple",
    "healthcare": "hospital",
    "name": "Hospital Santa Teresita",
    "operator:type": "public",
    "ref:sisa_codigo": "10660352173070",
    "ref:sisa_tipologia": "ESCIG",
    "source": "sedronar.gov.ar | Public Domain (PD)"
  }
},
{
  "type": "node",
  "id": 2245032826,
  "lat": -24.9101562,
  "lon": -65.6470495,
  "tags": {
    "addr:city": "Campo Quijano",
    "addr:full": "Antártida Argetina S/N°- Campo Quijano",
    "addr:place": "Rosario De Lerma",
    "addr:postcode": "4407",
    "amenity": "hospital",
    "description": "Bajo riesgo con internación simple",
    "healthcare": "hospital",
    "name": "Hospital Doctor Francisco Herrera",
    "operator:type": "public",
    "ref:sisa_codigo": "10661472173040",
    "ref:sisa_tipologia": "ESCIG",
    "source": "sedronar.gov.ar | Public Domain (PD)"
  }
},
{
  "type": "node",
  "id": 2245231637,
  "lat": -46.7932873,
  "lon": -67.9649946,
  "tags": {
    "amenity": "hospital",
    "healthcare": "hospital",
    "name": "CIC Huemul"
  }
},
{
  "type": "node",
  "id": 2245545096,
  "lat": -31.8926397,
  "lon": -61.8553472,
  "tags": {
    "amenity": "hospital",
    "emergency": "yes",
    "healthcare": "hospital",
    "name": "S.A.M.Co. San Jorge"
  }
},
{
  "type": "node",
  "id": 2252363210,
  "lat": -23.5651080,
  "lon": -65.1595854,
  "tags": {
    "amenity": "hospital",
    "healthcare": "hospital",
    "name": "puesto de salud"
  }
},
{
  "type": "node",
  "id": 2277166395,
  "lat": -33.6759676,
  "lon": -59.6659161,
  "tags": {
    "amenity": "hospital",
    "healthcare": "hospital",
    "name": "Clinica Privada San Pedro"
  }
},
{
  "type": "node",
  "id": 2290698780,
  "lat": -33.5825072,
  "lon": -69.0144895,
  "tags": {
    "addr:city": "Tunuyán",
    "addr:housenumber": "723",
    "addr:postcode": "5560",
    "addr:street": "Esteban Echeverría",
    "amenity": "hospital",
    "healthcare": "hospital",
    "name": "Sanatorio Tunuyán S.R.L.",
    "phone": "54 02622 422001"
  }
},
{
  "type": "node",
  "id": 2290699337,
  "lat": -33.5826028,
  "lon": -69.0124585,
  "tags": {
    "addr:city": "Tunuyán",
    "addr:housenumber": "280",
    "addr:postcode": "5560",
    "addr:street": "Dalmau",
    "amenity": "hospital",
    "healthcare": "hospital",
    "name": "Obra Social de Empleados Públicos",
    "short_name": "OSEP"
  }
},
{
  "type": "node",
  "id": 2290825366,
  "lat": -33.5701919,
  "lon": -69.0163905,
  "tags": {
    "amenity": "hospital",
    "healthcare": "hospital",
    "name": "Instituto Médico S.R.L."
  }
},
{
  "type": "node",
  "id": 2305213110,
  "lat": -34.4956380,
  "lon": -58.5460011,
  "tags": {
    "addr:city": "San Isidro",
    "addr:postcode": "1642",
    "addr:street": "Monseñor Magliano",
    "amenity": "hospital",
    "healthcare": "hospital",
    "name": "Grupo Médico Las Lomas",
    "phone": "+54 11 4735-4004",
    "website": "https://www.gmlsi.com/"
  }
},
{
  "type": "node",
  "id": 2328653474,
  "lat": -30.9800452,
  "lon": -64.4923750,
  "tags": {
    "amenity": "hospital",
    "emergency": "yes",
    "healthcare": "hospital",
    "name": "Hospital Municipal La Cumbre"
  }
},
{
  "type": "node",
  "id": 2340974405,
  "lat": -38.0218694,
  "lon": -57.5652779,
  "tags": {
    "amenity": "hospital",
    "healthcare": "hospital",
    "name": "Entrada Urgencias HPC"
  }
},
{
  "type": "node",
  "id": 2340975484,
  "lat": -38.0217637,
  "lon": -57.5659887,
  "tags": {
    "amenity": "hospital",
    "healthcare": "hospital",
    "name": "HPC Area San Luis"
  }
},
{
  "type": "node",
  "id": 2341469852,
  "lat": -50.3403266,
  "lon": -72.2701636,
  "tags": {
    "addr:city": "El Calafate",
    "addr:street": "Julio Argentino Roca",
    "amenity": "hospital",
    "description": "Unidad Comunitaria y de la Familia Dr. José Formenti",
    "emergency": "yes",
    "healthcare": "hospital",
    "name": "CIC Formenti"
  }
},
{
  "type": "node",
  "id": 2349898010,
  "lat": -28.2410093,
  "lon": -59.4485980,
  "tags": {
    "amenity": "hospital",
    "emergency": "yes",
    "healthcare": "hospital",
    "name": "Carlos Harteneck"
  }
},
{
  "type": "node",
  "id": 2351737713,
  "lat": -34.5199942,
  "lon": -58.5420066,
  "tags": {
    "addr:city": "Villa Adelina",
    "addr:housenumber": "5849",
    "addr:postcode": "1607",
    "addr:street": "Paraná",
    "amenity": "hospital",
    "healthcare": "hospital",
    "name": "Fundacion Creciendo con los Angeles",
    "phone": "+54 11 4765-4572",
    "website": "http://www.cre-angeles.org.ar",
    "wheelchair": "yes"
  }
},
{
  "type": "node",
  "id": 2352488508,
  "lat": -39.2914855,
  "lon": -65.6598595,
  "tags": {
    "addr:city": "Choele Choel",
    "addr:housenumber": "863",
    "addr:postcode": "8360",
    "addr:street": "Alsina",
    "amenity": "hospital",
    "healthcare": "hospital",
    "name": "Matherday"
  }
},
{
  "type": "node",
  "id": 2353066288,
  "lat": -33.3119437,
  "lon": -66.3161615,
  "tags": {
    "amenity": "hospital",
    "healthcare": "hospital"
  }
},
{
  "type": "node",
  "id": 2353864054,
  "lat": -33.1454840,
  "lon": -59.3122883,
  "tags": {
    "amenity": "hospital",
    "emergency": "yes",
    "healthcare": "hospital",
    "name": "C.E.M."
  }
},
{
  "type": "node",
  "id": 2353864067,
  "lat": -33.1510867,
  "lon": -59.3099419,
  "tags": {
    "amenity": "hospital",
    "healthcare": "hospital",
    "name": "Sur Centro Médico"
  }
},
{
  "type": "node",
  "id": 2363141770,
  "lat": -31.3410656,
  "lon": -65.0801472,
  "tags": {
    "amenity": "hospital",
    "emergency": "no",
    "healthcare": "hospital",
    "name": "Hogar de Ancianos"
  }
},
{
  "type": "node",
  "id": 2374935591,
  "lat": -27.4649221,
  "lon": -58.9712684,
  "tags": {
    "addr:city": "Resistencia",
    "addr:housenumber": "1698",
    "addr:postcode": "3500",
    "addr:street": "Avenida 9 de Julio",
    "alt_name": "C M Q R Centro Medico Quirurgico Resistencia",
    "amenity": "hospital",
    "healthcare": "hospital",
    "name": "Centro Médico Quirúrgico Resistencia",
    "operator": "Privado",
    "operator:type": "private",
    "phone": "+54 362 4413309",
    "ref:sisa_codigo": "10221402326935",
    "ref:sisa_tipologia": "ESCIG"
  }
},
{
  "type": "node",
  "id": 2375353454,
  "lat": -32.4120485,
  "lon": -63.2403546,
  "tags": {
    "amenity": "hospital",
    "healthcare": "hospital",
    "name": "Grupo Roentgen"
  }
},
{
  "type": "node",
  "id": 2382913294,
  "lat": -43.2849488,
  "lon": -65.4957225,
  "tags": {
    "addr:city": "Gaiman",
    "addr:full": "Belgrano Y Lucero",
    "addr:place": "Gaiman",
    "amenity": "hospital",
    "description": "Bajo riesgo con internación simple",
    "emergency": "yes",
    "healthcare": "hospital",
    "name": "Hospital Rural Gaiman",
    "operator:type": "public",
    "ref:sisa_codigo": "10260422129022",
    "ref:sisa_tipologia": "ESCIG",
    "source": "sedronar.gov.ar | Public Domain (PD)"
  }
},
{
  "type": "node",
  "id": 2385951684,
  "lat": -36.7121254,
  "lon": -56.7333003,
  "tags": {
    "amenity": "hospital",
    "healthcare": "hospital",
    "name": "Unidad Sanitaria"
  }
},
{
  "type": "node",
  "id": 2393442456,
  "lat": -27.4521560,
  "lon": -59.0138853,
  "tags": {
    "addr:city": "Resistencia",
    "addr:full": "Avenida Marconi 1486",
    "addr:housenumber": "1486",
    "addr:postcode": "3500",
    "addr:street": "Avenida Marconi",
    "alt_name": "Sanatorio Chaco S.r.l. Sucursal Oeste",
    "amenity": "hospital",
    "healthcare": "hospital",
    "name": "Sanatorio Chaco Oeste",
    "operator": "Privado",
    "operator:type": "private",
    "phone": "+54 362 4462566",
    "ref:sisa_codigo": "10221402326077",
    "ref:sisa_tipologia": "ESCIG"
  }
},
{
  "type": "node",
  "id": 2394996785,
  "lat": -35.4029804,
  "lon": -59.3251605,
  "tags": {
    "addr:city": "Roque Pérez",
    "addr:street": "Rawson",
    "amenity": "hospital",
    "emergency": "no",
    "healthcare": "hospital",
    "name": "Hospital Doctor Ramón Carrillo"
  }
},
{
  "type": "node",
  "id": 2395321276,
  "lat": -31.7818687,
  "lon": -63.7977796,
  "tags": {
    "amenity": "hospital",
    "emergency": "yes",
    "healthcare": "hospital",
    "name": "Hospital Municipal"
  }
},
{
  "type": "node",
  "id": 2400684410,
  "lat": -37.4545587,
  "lon": -61.9388680,
  "tags": {
    "amenity": "hospital",
    "healthcare": "hospital",
    "name": "Hospital Municipal “Doctor Raúl Caccavo”"
  }
},
{
  "type": "node",
  "id": 2404106413,
  "lat": -36.8590728,
  "lon": -57.8749284,
  "tags": {
    "amenity": "hospital",
    "healthcare": "hospital",
    "name": "Hospital De Maipú"
  }
},
{
  "type": "node",
  "id": 2414622647,
  "lat": -28.2668120,
  "lon": -58.1226560,
  "tags": {
    "addr:full": "Avenida 25 de Mayo y Avenida Tucumán",
    "amenity": "hospital",
    "contact:phone": "+54 3782 494401",
    "description": "Bajo riesgo con internación simple",
    "healthcare": "hospital",
    "healthcare:speciality": "general",
    "name": "Hospital Santa Rosa",
    "operator:type": "public",
    "ref:sisa_codigo": "10180282139059",
    "ref:sisa_tipologia": "ESCIG"
  }
},
{
  "type": "node",
  "id": 2429369427,
  "lat": -31.8658093,
  "lon": -60.0044712,
  "tags": {
    "addr:city": "Viale",
    "addr:postcode": "3109",
    "aeroway": "no",
    "amenity": "hospital",
    "emergency": "yes",
    "healthcare": "hospital",
    "name": "Hospital Castilla Mira"
  }
},
{
  "type": "node",
  "id": 2441013445,
  "lat": -35.5189238,
  "lon": -61.0030691,
  "tags": {
    "amenity": "hospital",
    "description": "Sala de primeros auxilios",
    "healthcare": "hospital"
  }
},
{
  "type": "node",
  "id": 2445210956,
  "lat": -24.3697331,
  "lon": -65.3323455,
  "tags": {
    "amenity": "hospital",
    "healthcare": "hospital"
  }
},
{
  "type": "node",
  "id": 2456009735,
  "lat": -37.0141513,
  "lon": -62.4196126,
  "tags": {
    "amenity": "hospital",
    "healthcare": "hospital",
    "name": "Dentista"
  }
},
{
  "type": "node",
  "id": 2460974167,
  "lat": -30.7216764,
  "lon": -64.8093942,
  "tags": {
    "amenity": "hospital",
    "healthcare": "hospital",
    "name": "Empresa Prior"
  }
},
{
  "type": "node",
  "id": 2460986700,
  "lat": -30.7312377,
  "lon": -64.7942592,
  "tags": {
    "amenity": "hospital",
    "healthcare": "hospital",
    "name": "Unidad Renal Sol"
  }
},
{
  "type": "node",
  "id": 2465889520,
  "lat": -35.6227732,
  "lon": -61.3605932,
  "tags": {
    "amenity": "hospital",
    "healthcare": "hospital",
    "name": "Centro Materno Infantil"
  }
},
{
  "type": "node",
  "id": 2467222419,
  "lat": -35.1257494,
  "lon": -58.8920858,
  "tags": {
    "amenity": "hospital",
    "healthcare": "hospital",
    "name": "Hospital Subzonal Especializado Doctor Dardo Rocha",
    "phone": "+54 (2226) 49-3037"
  }
},
{
  "type": "node",
  "id": 2469575212,
  "lat": -32.1439079,
  "lon": -61.9785904,
  "tags": {
    "amenity": "hospital",
    "healthcare": "hospital",
    "name": "Samco Piamonte"
  }
},
{
  "type": "node",
  "id": 2498531328,
  "lat": -28.0631316,
  "lon": -67.5657690,
  "tags": {
    "amenity": "hospital",
    "emergency": "yes",
    "healthcare": "hospital",
    "name": "Sanatorio San Roque"
  }
},
{
  "type": "node",
  "id": 2499968550,
  "lat": -34.2877547,
  "lon": -59.1039735,
  "tags": {
    "addr:housenumber": "966",
    "addr:street": "Luis María Migliaro",
    "amenity": "hospital",
    "emergency": "yes",
    "healthcare": "hospital",
    "name": "Hospital Municipal San José",
    "operator": "Municipalidad de Exaltación de la Cruz",
    "operator:type": "public",
    "phone": "+54 2323 49-1344",
    "ref:sisa_codigo": "10062662207080",
    "ref:sisa_tipologia": "ESCIG"
  }
},
{
  "type": "node",
  "id": 2500819000,
  "lat": -30.6260604,
  "lon": -66.2608425,
  "tags": {
    "addr:city": "Olta",
    "addr:full": "Pelagio B. Luna 256",
    "addr:place": "General Belgrano",
    "addr:postcode": "5383",
    "addr:street": "Avenida Perón",
    "amenity": "hospital",
    "description": "Bajo riesgo con internación simple",
    "healthcare": "hospital",
    "name": "Hospital Distrital Luis Aldo Motta - Olta",
    "opening_hours": "24/7",
    "operator:type": "public",
    "ref:sisa_codigo": "10460632155014",
    "ref:sisa_tipologia": "ESCIG",
    "source": "sedronar.gov.ar | Public Domain (PD)"
  }
},
{
  "type": "node",
  "id": 2501280220,
  "lat": -32.1702748,
  "lon": -64.0949327,
  "tags": {
    "amenity": "hospital",
    "healthcare": "hospital",
    "name": "Sala Asistencial Bº Panamericano"
  }
},
{
  "type": "node",
  "id": 2504505480,
  "lat": -32.1595065,
  "lon": -64.1211028,
  "tags": {
    "addr:housenumber": "150",
    "addr:postcode": "5850",
    "addr:street": "C. Saavedra",
    "amenity": "hospital",
    "healthcare": "hospital",
    "name": "Sala Asistencial Bº Cerino"
  }
},
{
  "type": "node",
  "id": 2504505481,
  "lat": -32.1667387,
  "lon": -64.1219874,
  "tags": {
    "amenity": "hospital",
    "healthcare": "hospital",
    "name": "Sala Asistencial Bº Escuela"
  }
},
{
  "type": "node",
  "id": 2504505482,
  "lat": -32.1609156,
  "lon": -64.1090711,
  "tags": {
    "amenity": "hospital",
    "healthcare": "hospital",
    "name": "Sala Asistencial Bº Int. Ferrero"
  }
},
{
  "type": "node",
  "id": 2504505483,
  "lat": -32.1644783,
  "lon": -64.1006873,
  "tags": {
    "amenity": "hospital",
    "healthcare": "hospital",
    "name": "Sala Asistencial Bº Magnasco"
  }
},
{
  "type": "node",
  "id": 2504505484,
  "lat": -32.1794685,
  "lon": -64.0959522,
  "tags": {
    "amenity": "hospital",
    "healthcare": "hospital",
    "name": "Sala Asistencial Bº Sarmiento"
  }
},
{
  "type": "node",
  "id": 2507677587,
  "lat": -32.1743301,
  "lon": -64.1228864,
  "tags": {
    "amenity": "hospital",
    "healthcare": "hospital",
    "name": "Sala Asistencial Bº Belgrano"
  }
},
{
  "type": "node",
  "id": 2507677590,
  "lat": -32.1849380,
  "lon": -64.1225410,
  "tags": {
    "amenity": "hospital",
    "healthcare": "hospital",
    "name": "Sala Asistencial Bº Castagnino"
  }
},
{
  "type": "node",
  "id": 2507677593,
  "lat": -32.1720930,
  "lon": -64.1460777,
  "tags": {
    "amenity": "hospital",
    "healthcare": "hospital",
    "name": "Sala Asistencial Bº Monte Grande"
  }
},
{
  "type": "node",
  "id": 2507677596,
  "lat": -32.1668526,
  "lon": -64.1062896,
  "tags": {
    "amenity": "hospital",
    "healthcare": "hospital",
    "name": "Sala Asistencial Bº Norte"
  }
},
{
  "type": "node",
  "id": 2507677599,
  "lat": -32.1678502,
  "lon": -64.1551975,
  "tags": {
    "amenity": "hospital",
    "healthcare": "hospital",
    "name": "Sala Asistencial Bº Pque. Monte Grande"
  }
},
{
  "type": "node",
  "id": 2517023174,
  "lat": -36.8612874,
  "lon": -60.1614234,
  "tags": {
    "amenity": "hospital",
    "healthcare": "hospital"
  }
},
{
  "type": "node",
  "id": 2517671780,
  "lat": -25.8010101,
  "lon": -62.8308227,
  "tags": {
    "addr:city": "Monte Quemado",
    "addr:postcode": "3714",
    "addr:street": "Alberdi",
    "amenity": "hospital",
    "description": "Clínicas y Sanatorios con internación y atención ambulatoria",
    "emergency": "yes",
    "healthcare": "hospital",
    "name": "Sanatorio Maguna",
    "phone": "+54 3841­ 421288"
  }
},
{
  "type": "node",
  "id": 2519402129,
  "lat": -25.8049695,
  "lon": -62.8307944,
  "tags": {
    "addr:city": "Monte Quemado",
    "addr:housenumber": "391",
    "addr:postcode": "3714",
    "addr:street": "Avenida 25 de Mayo",
    "amenity": "hospital",
    "healthcare": "hospital",
    "name": "Clinica La Natividad",
    "phone": "+54 3841 421102"
  }
},
{
  "type": "node",
  "id": 2539558971,
  "lat": -34.8033580,
  "lon": -58.4662799,
  "tags": {
    "addr:housenumber": "687",
    "addr:postcode": "1842",
    "addr:street": "Avenida Nicolás Bruzzone",
    "amenity": "hospital",
    "contact:phone": "+54 11 4290-9020",
    "contact:website": "https://www.sanatoriomodeloestrella.com/",
    "healthcare": "hospital",
    "name": "Sanatorio Modelo Estrella",
    "old_name": "Clínica Bruzzone",
    "opening_hours": "24/7",
    "operator": "Privado",
    "operator:type": "private",
    "ref:sisa_codigo": "10062602305259",
    "wheelchair": "yes",
    "wikidata": "Q93824663"
  }
},
{
  "type": "node",
  "id": 2540470254,
  "lat": -45.5532095,
  "lon": -71.5215533,
  "tags": {
    "addr:city": "Aldea Beleiro",
    "addr:street": "Ruta 74",
    "amenity": "hospital",
    "emergency": "yes",
    "healthcare": "hospital",
    "name": "Puesto sanitario Aldea Beleiro",
    "wheelchair": "yes"
  }
},
{
  "type": "node",
  "id": 2541239961,
  "lat": -34.8143899,
  "lon": -58.4661026,
  "tags": {
    "addr:housenumber": "158",
    "addr:postcode": "1842",
    "addr:street": "General Rodríguez",
    "amenity": "hospital",
    "healthcare": "hospital",
    "name": "Clínica Monte Grande",
    "operator": "Privado",
    "operator:type": "private",
    "phone": "+54 11 4290-2334",
    "ref:sisa_codigo": "10062602300067",
    "ref:sisa_tipologia": "ESCIG",
    "wikidata": "Q93820290"
  }
},
{
  "type": "node",
  "id": 2542347158,
  "lat": -27.2114456,
  "lon": -59.2872561,
  "tags": {
    "addr:city": "Makallé",
    "addr:full": "Avenida Juan Bautista Alberdi Y Sargento Cabral",
    "addr:postcode": "3514",
    "addr:street": "Juan Bautista Alberdi",
    "amenity": "hospital",
    "healthcare": "hospital",
    "name": "Hospital General Donovan",
    "operator": "Provincial",
    "operator:type": "public",
    "phone": "+54 362 4495018",
    "ref:sisa_codigo": "10220562126055",
    "ref:sisa_tipologia": "ESCIG"
  }
},
{
  "type": "node",
  "id": 2552640330,
  "lat": -27.4745394,
  "lon": -66.0153625,
  "tags": {
    "addr:city": "El Alamito",
    "addr:street": "Ruta Provincial 48",
    "amenity": "hospital",
    "emergency": "yes",
    "healthcare": "hospital",
    "name": "Mini Hospital de Aconquija"
  }
},
{
  "type": "node",
  "id": 2556181881,
  "lat": -33.2968433,
  "lon": -66.3182243,
  "tags": {
    "addr:housenumber": "110",
    "addr:street": "Héroes de Malvinas",
    "amenity": "hospital",
    "building": "yes",
    "email": "bancocentralsl@yahoo.com.ar",
    "healthcare": "hospital",
    "is_in": "San Luis",
    "layer": "1",
    "name": "Banco Central de Sangre",
    "note": "confirmar ubicacion: edif principal u otro",
    "official_name": "Banco Central de Sangre Provincia de San Luis",
    "opening_hours": "Mo-Fr 07:30-11:00",
    "phone": "54 0266 4425025,250"
  }
},
{
  "type": "node",
  "id": 2558011700,
  "lat": -28.3481221,
  "lon": -59.2583489,
  "tags": {
    "addr:city": "Las Toscas",
    "addr:housenumber": "450",
    "addr:postcode": "3586",
    "addr:street": "Calle 31",
    "amenity": "hospital",
    "emergency": "yes",
    "healthcare": "hospital",
    "name": "SAMCO Las Toscas",
    "phone": "+54 3482 492134; +54 3482 492311"
  }
},
{
  "type": "node",
  "id": 2564326447,
  "lat": -28.4429939,
  "lon": -65.7700064,
  "tags": {
    "amenity": "hospital",
    "healthcare": "hospital",
    "name": "Posta Sanitaria"
  }
},
{
  "type": "node",
  "id": 2585241239,
  "lat": -33.1224923,
  "lon": -62.0981264,
  "tags": {
    "amenity": "hospital",
    "emergency": "yes",
    "healthcare": "hospital",
    "name": "Hospital Municipal “Dr. Miguel Ángel Baeza”",
    "phone": "03468401194"
  }
},
{
  "type": "node",
  "id": 2585241240,
  "lat": -33.1280947,
  "lon": -62.0973561,
  "tags": {
    "addr:housenumber": "1080",
    "addr:street": "Italia",
    "amenity": "hospital",
    "healthcare": "hospital",
    "name": "Clínica Camilo Aldao",
    "phone": "03468401049"
  }
},
{
  "type": "node",
  "id": 2588707702,
  "lat": -34.4612376,
  "lon": -58.9101291,
  "tags": {
    "addr:city": "Pilar",
    "addr:full": "Mayor Vergani 860",
    "addr:housenumber": "860",
    "addr:postcode": "1629",
    "addr:street": "Víctor Vergani",
    "alt_name": "Hospital Municipal Juan Cirilo Sanguinetti",
    "amenity": "hospital",
    "healthcare": "hospital",
    "name": "Hospital del Pilar",
    "operator": "Municipal",
    "operator:type": "public",
    "phone": "+54 2322 43 3741",
    "ref:sisa_codigo": "10066382200322",
    "ref:sisa_tipologia": "ESCIG"
  }
},
{
  "type": "node",
  "id": 2588707703,
  "lat": -34.4609095,
  "lon": -58.9101663,
  "tags": {
    "addr:city": "Pilar",
    "addr:full": "Victor Vergani 830",
    "addr:housenumber": "830",
    "addr:postcode": "1629",
    "addr:street": "Víctor Vergani",
    "amenity": "hospital",
    "healthcare": "hospital",
    "name": "Clínica Nuestra Señora de Fátima",
    "operator": "Privado",
    "operator:type": "private",
    "phone": "+54 2322 420303",
    "ref:sisa_codigo": "10066382300069",
    "ref:sisa_tipologia": "ESCIG"
  }
},
{
  "type": "node",
  "id": 2598409395,
  "lat": -30.9146159,
  "lon": -62.6732765,
  "tags": {
    "amenity": "hospital",
    "healthcare": "hospital",
    "name": "Sanatorio"
  }
},
{
  "type": "node",
  "id": 2607498456,
  "lat": -29.2309827,
  "lon": -61.7725410,
  "tags": {
    "addr:city": "Tostado",
    "addr:postcode": "3060",
    "addr:street": "San Martín",
    "amenity": "hospital",
    "healthcare": "hospital",
    "name": "Clínica del Norte"
  }
},
{
  "type": "node",
  "id": 2610193842,
  "lat": -33.2674049,
  "lon": -68.4572554,
  "tags": {
    "addr:city": "La Florida",
    "addr:postcode": "5579",
    "addr:street": "Mario Baldo",
    "amenity": "hospital",
    "emergency": "no",
    "healthcare": "hospital",
    "name": "Sala La Florida"
  }
},
{
  "type": "node",
  "id": 2611448518,
  "lat": -31.5804511,
  "lon": -60.0701004,
  "tags": {
    "addr:city": "Cerrito",
    "addr:housenumber": "414",
    "addr:postcode": "3122",
    "addr:street": "Boulevard Libertad",
    "amenity": "hospital",
    "healthcare": "hospital",
    "name": "Hospital José Maria Miranda",
    "phone": "+54 343 4890133",
    "ref:sisa_codigo": "10300842142049",
    "ref:sisa_tipologia": "ESCIG"
  }
},
{
  "type": "node",
  "id": 2612970553,
  "lat": -34.6768479,
  "lon": -58.5608733,
  "tags": {
    "addr:full": "Almafuerte 3016",
    "addr:postcode": "1754",
    "amenity": "hospital",
    "emergency": "yes",
    "healthcare": "hospital",
    "name": "Policlinico Central San Justo",
    "operator": "Municipal",
    "operator:type": "public",
    "phone": "011-46510164",
    "ref:sisa_codigo": "10064272200433",
    "ref:sisa_tipologia": "ESCIG"
  }
},
{
  "type": "node",
  "id": 2613102628,
  "lat": -27.9817443,
  "lon": -55.5137189,
  "tags": {
    "addr:city": "Concepción de la Sierra",
    "addr:postcode": "3355",
    "addr:street": "Avenida Gonzalo de Doblas",
    "amenity": "hospital",
    "description": "Hospital zonal de Nivel 1",
    "emergency": "yes",
    "healthcare": "hospital",
    "name": "Hospital de Concepción de la Sierra",
    "source": "Neco Barrios y Asociados para el \"Gran Atlas de Misiones\" (IPEC, 2012)."
  }
},